stop_id,stop_code,stop_name,stop_lat,stop_lon,location_type
518082,K23T251,Kr 23 entre Tr 25 y Cl 25,3.43620111,-76.51699389,0
518083,C27K27,Cl 27 entre Kr 28 y 27,3.42942111,-76.51661167,0
518084,C27K25B,Cl 27 Kr 25B y 25A,3.43150889,-76.51638639,0
518085,C28K23C,Cl 28 entre Kr 23C y 23B,3.43422222,-76.51480333,0
518089,C32K31A,Cl 32entre Kr 31A y 31,3.4254075,-76.51188639,0
518090,C32K29AB,Cl 32 entre Kr 29A Bis y 29A,3.42752861,-76.51174583,0
518092,T29K26,Tr 29 entre Kr26 y 25,3.43321694,-76.51012222,0
518097,T30C29,Tr 30 con Cl 29,3.44290056,-76.51640056,0
518098,T30C17F,Tr 30 entre Kr 17F y Dg 19,3.43951139,-76.51436167,0
518101,C44K29,Cl 44 entre Kr 29 y 29A,3.42634861,-76.50539583,0
518105,T30C17D,Tr 30 entre Kr 17D y 17F,3.44098833,-76.51501222,0
518109,C32K33C,Cl 32 entre Kr 33C y 33B,3.42220056,-76.51215444,0
518111,D22T25,Dg 22 entre Tr 25 y 26,3.43511333,-76.51420889,0
518112,C33CK24B,Cl 33C entre Kr 24B y 24C,3.43564611,-76.50983667,0
518113,C33CK25,Cl 33C entre Kr 25 y 26,3.43347944,-76.50924889,0
518114,K27C33E,Kr 27 entre Cl 33E y 33H,3.43294139,-76.50747222,0
518115,K27C34,Kr 27 entre Cl 34 y 36,3.43349278,-76.50525611,0
518116,K27C36A,Kr 27 entre Cl 36A y Dg 28B,3.43362111,-76.50309944,0
518117,K27C44,Kr 27 entre Cl 44 y 49,3.43267139,-76.50122639,0
518118,K27C52,Kr 27 entre 52 y 54,3.43174167,-76.49938944,0
518119,K27C70,Kr 27 entre Cl 70 y 56A,3.43128306,-76.49806722,0
518120,K27C50,Kr 27 entre Cl 50 y 49,3.43266722,-76.5008025,0
518121,K27D28B,Kr 27 entre Dg 28B y Cl 39,3.43389889,-76.50325,0
518122,K27C33H,Kr 27 entre Cl 33H y 34,3.43348944,-76.50591444,0
518123,D24CT25,Dg 24C entre Tr 25 y 29,3.43428972,-76.51193278,0
518124,C32K33B,Cl 32 entre Kr 33B y 33A,3.42260944,-76.51210556,0
518126,C44K31,Cl 44 entre Kr 31 y 29B,3.42501472,-76.5057575,0
518128,K32D33,Kr 32 entre Dg 33 y 32,3.42330389,-76.505465,0
518129,D30K33,Dg 30 entre Kr 33 y 33A,3.42252472,-76.50731417,0
518130,C70D28EK,Cl 70 entre Dg 28EBis y Kr 28EBis,3.42675611,-76.50070083,0
518131,T29C44,Tr 29 con Calle 44,3.42643722,-76.50477889,0
518132,C44T29K2,Cl 44 entre Tr 29 y kr 28F,3.42718556,-76.5046825,0
518133,C44K28ET,Cl 44 entre Kr 28E y Tr 28D,3.42961056,-76.50342139,0
518134,C44K28A,Cl 44 entre Kr 28 y 27A,3.43234028,-76.50205639,0
518135,C44K26L,C44 entre Kr 26L y 26K,3.43534028,-76.50050167,0
518136,C52K2625,Cl 52 entre Kr 26 y 25A,3.43753083,-76.49778611,0
518143,C44T28D,Cl 44 entre Tr 28D y 33H,3.42995889,-76.50352528,0
518147,C70K25,Cl 70 entre Kr 25 y 25A,3.43948306,-76.49343972,0
518148,C70K26F,Cl 70 entre Kr 26D y 26F,3.43590194,-76.49539639,0
518149,C70K34,Cl 70 entre Kr 34 y 35,3.42047444,-76.50727944,0
518150,C70K28B,Cl 70 entre Kr 28B y 27,3.43062,-76.49724694,0
518152,D19T28A,Dg 19 entre Tr 28A y 28,3.43788972,-76.51483083,0
518153,C52K22,Cl 52 entre Kr 22 y 20,3.44208028,-76.49937278,0
518155,C52K24B,Cl 52 entre Kr 24B y 24A,3.4394875,-76.49850028,0
518156,C44K21,Cl 44 entre Kr 21 y 19,3.44137556,-76.50199083,0
518157,C44K20,Cl 44 entre Kr 20 y 22,3.44106028,-76.50202944,0
518158,C44K24,Cl 44 entre K24 y 24A,3.43926667,-76.50138222,0
518159,C44K25,Cl 44 entre Kr 25 y 25A,3.43720611,-76.50061611,0
518160,C44C43,Cl 44 entre Cl 43 y 42A,3.43546222,-76.50064,0
518161,C44K28,Cl 44 entre Kr 28 y 28A,3.43208444,-76.50239083,0
518162,C44T33E,Cl 44 entre Tr 33E y 29,3.42752111,-76.50473972,0
518164,C70K26P,Cl 70 entre Kr 26P y 27,3.4312825,-76.49777417,0
518165,K39C26D,Kr 39 entre Cl 26C y 26B,3.41944722,-76.51843639,0
518169,C70K28C,Cl 70 entre Kr 28C y 28B,3.42913861,-76.49800528,0
518171,C70K26E,Cl 70 entre Kr 26E y 26F,3.43654083,-76.49505167,0
518173,C27K271,Cl 27 entre Kr 27 y 28,3.42948722,-76.51677306,0
518174,K29C31A,Kr 29 entre 31A y 30,3.42853778,-76.51422556,0
518175,C30T25,Cl 30 entyre Tr 25 y Kr 23B,3.43340889,-76.51315778,0
518176,C30K24,Cl 30 entre Kr 24 y 25A,3.43184639,-76.51428028,0
518177,C30K27,Cl 30 entre Kr 27 y 28,3.42989139,-76.51452417,0
518178,K29C29,Kr 29 entre Cl 29 y 30,3.42834333,-76.51425083,0
518179,K29C32,Kr 29 entre Cl 31A y 32,3.42811778,-76.51207139,0
518180,C32K29B,Cl 32 entre Kr 29B,3.42658778,-76.51187889,0
518181,D30K36,Dg 30 entre Kr 36 y 37,3.42023528,-76.50848972,0
518185,K27C71,Kr 27entre Cl 71 y 71A,3.43071944,-76.49654694,0
518186,D72MK26M,Dg 72M entre Kr 26M y 26L,3.43156028,-76.49392667,0
518187,K26ID72A,Kr 26I entre Dg 72A y 71B,3.43364861,-76.4922125,0
518188,K27C72,Kr 27 entre Cl 72 y 71B,3.43068528,-76.49567222,0
518189,C70K27,Cl 70 entre Kr 27 y 26M,3.43117778,-76.49695639,0
518192,C70DK282,Cl 70 entre Dg 28EBis y Kr 28E2 PP2,3.42651389,-76.5009825,0
519007,C26K13,Cl 26 entre Kr 13 y 12,3.44689667,-76.51795833,0
519008,C26K11B,Cl 26 entre Kr 11B y 10,3.44952,-76.51779722,0
519015,C10K32A,Cl 10 entre Kr 32A y 33,3.42636,-76.53374833,0
519016,C10K33,Cl 10 entre Kr 33 y 32A,3.42600167,-76.533335,0
519017,C10K32,Cl 10 entre Kr 30 y 32,3.42825333,-76.532775,0
519018,C10K31,Cl 10 entre Kr 31 y 30,3.42848667,-76.53199333,0
519019,D23T11,Dg 23 entre Tr 11 y 10,3.43033167,-76.53024833,0
519020,D23T12,Dg 23 entre Tr 12A y 13,3.43020833,-76.52958639,0
519021,C13D231,Cl 13 entre Kr 23D y D23,3.43302472,-76.52818111,0
519022,C13D232,Cl 13 entre Dg 23 y K23D,3.43286917,-76.527915,0
519024,C13K22B,Cl 13 entre Kr 23 y 22B,3.43622694,-76.52812222,0
519025,C13K20,Cl 13 entre Kr 20 y 21,3.43820472,-76.52846583,0
519026,C13K21,Cl 13 entre Kr 21 y 20,3.43845167,-76.52822167,0
519027,C9K32A,Cl 9 entre Kr 32A y 32,3.42762806,-76.53689722,0
519028,C9K31,Cl 9 entre Kr 31 y 30,3.42956944,-76.53631556,0
519029,C9K27,Cl 9 entre Kr 28 y 27,3.43227611,-76.53550278,0
519030,C9K23D,Cl 9 entre Kr 23D y 23C,3.43488028,-76.53471667,0
519031,C9K19,Cl 9 entre Kr 19 y 17,3.438955,-76.53347667,0
519033,C21K1,Cl 21 entre Kr 1 y 2,3.45769,-76.525755,0
519034,K5C21,Kr 5 entre Cl 21 y 22,3.45518389,-76.52421972,0
519035,K5C24,Kr 5 entre Cl 24 y 25,3.456755,-76.520755,0
519038,A4NC5,Av 4N entre Cl 5 y 6 Oeste,3.45380278,-76.54614361,0
519039,A4NC6,Av 4N entre Cl 6 y 7 Oeste,3.45444972,-76.54863861,0
519040,K1C9OE,Kr 1 entre Cl 9 y 10 Oe,3.45201361,-76.55072389,0
519041,C7OEAV1,Cl 7 Oe con Av 1,3.45327,-76.54957278,0
519042,C5OEK1A,Cl 5 Oeste entre Kr 1A y 1B Oeste,3.4530925,-76.54669139,0
519043,K1C5OE,Kr 1 entre Kr 1C y Cl 5 Oeste,3.45056472,-76.54495556,0
519045,K8C25,Kr 8 entre Cl 25 y 24,3.452715,-76.519765,0
519046,K8C21,Kr 8 entre Cl 21 y 20,3.45166056,-76.52341833,0
519047,K8C16,Kr 8 entre Cl 16 y 15,3.450215,-76.52799333,0
519048,K5C15,Kr 5 entre Cl 15  y 16,3.45299639,-76.52896472,0
519049,K5C19,Kr 5 entre Cl 19 y 20,3.45454333,-76.5257,0
519050,C9K12,Cl 9 entre Kr 13 y 12,3.44472972,-76.5332325,0
519051,C10K10,Cl 10 entre Kr 10 y 12,3.44650806,-76.53263528,0
519052,C10K13,Cl 10 entre Kr 13 y 14,3.44368472,-76.53220611,0
519056,K23AC12A,Kr 23A entre Cl 12A y 13,3.43500889,-76.52857861,0
519059,C10K19,Cl 10 entre Kr 19 y 20,3.43899611,-76.53158083,0
519061,C15K19A,Cl 15 entre Kr 19A y 18A,3.43947444,-76.525925,0
519062,C10K22,Cl 10 entre Kr 22 y 23,3.43632667,-76.5312725,0
519064,C25K12,Cl 25 entre Kr 12 y 13A,3.44572333,-76.51861333,0
519067,C9K15,Cl 9 entre Kr 15 y 14A,3.44231083,-76.53318861,0
519068,C9K8,Cl 9 entre Kr 8 y 6,3.44949056,-76.53400056,0
519069,C5K5,Cl 5 entre Kr 5 y 6,3.44856333,-76.53725333,0
519070,K4C9,Kr 4 entre Cl 9 y 8,3.45110417,-76.5348625,0
519071,K4C5,Kr 4 entre Cl 5 y 4,3.44960139,-76.53802944,0
519072,K3C1OE,Kr 3 entre Cl 1 y 2 Oeste,3.44969611,-76.54140083,0
519073,K2C2OE,Kr 2 entre Cl 2 y 3 Oeste,3.45083889,-76.54239944,0
519074,K1C11OE,Kr 1 entre Cl 11 y 12 Oe,3.45068861,-76.55344833,0
519075,K2OEC14,Kr 20E entre Cl 14 y 15 Oe,3.447825,-76.55675944,0
519076,K2C13OE,Kr 2 entre Cl 13 y 12 Oe,3.44956556,-76.55392833,0
519077,K2C11OE,Kr 2 entre Cl 11 y 10 Oe,3.45099,-76.55094111,0
519078,K2C8OE,Kr 2 entre Cl 8 y 7 Oe,3.45178556,-76.54887278,0
519079,K1C2A,Kr 1 entre Cl 2 y 2A,3.45042083,-76.53986917,0
519080,K10C7,Kr 10 entre Cl 7 y 8,3.44648028,-76.53459611,0
519081,C5K15,Cl 5 entre Kr 15 y 16,3.44262028,-76.5367725,0
519082,C5K19,Cl 5 entre Kr 19 y 22,3.44053417,-76.53711417,0
519083,K23C5,Kr 23 entre Cl 5 y 3A,3.43909333,-76.53817167,0
519084,K23C2,Kr 23 entre Cl 2 y 1A,3.44064583,-76.54066333,0
519086,K24CC6,Kr 24C entre Cl 6 y 9,3.44189778,-76.54588139,0
519087,K24CC61,Kr 24C entre Cl 6 y  9,3.44286056,-76.54818972,0
519088,K14C9,Kr 14 entre Cl 9 y 8,3.44433,-76.54797167,0
519089,K14C6,Kr 14 entre Cl 6 y 7,3.44421667,-76.54538667,0
519090,K14C3,Kr 14 entre Cl 3 y 2,3.44343583,-76.54249083,0
519092,K14C31,Kr 14 entre Cl 3 y 4,3.44374083,-76.53860361,0
519093,C4BK27,Cl 4B entre Kr 27 y 34,3.43393222,-76.54219111,0
519094,K34C4,Kr 34 entre Cl 4 y 3,3.434605,-76.54462667,0
519095,C3OK34,Cl 3 Oe entre Kr 34 y 27,3.43667528,-76.54539639,0
519096,K27C5O,Kr 27 con Cl 5 Oe,3.43966083,-76.54679444,0
519097,K27C9O2,Kr 27 con Cl 9 Oe,3.44337944,-76.54847861,0
519098,K6C8O,Kr 6 con Cl 8 Oe,3.44532806,-76.54723861,0
519099,K4C6O,Kr 4 entre Cl 6 y 7 Oe,3.44693139,-76.54714806,0
519100,K4C8O2,Kr 4 entre Cl 8 y 9 Oe,3.44687167,-76.54865,0
519101,K4C11O,Kr 4 entre Cl 11 y 12 Oe,3.44617639,-76.55056528,0
519103,K4C12O,Kr 4 entre Cl 12 y 11 Oe,3.44616611,-76.55047222,0
519104,K4C9O,Kr 4 entre Cl 9 y 8 Oe,3.44681417,-76.54869667,0
519105,K4C7O,Kr 4 entre Cl 7 y 6 Oe,3.4468425,-76.54733944,0
519106,K6C8O1,Kr 6 con Cl 8 Oe,3.44542056,-76.54794833,0
519107,K27C9O1,Kr 27 con Cl 9 Oe,3.44306194,-76.54849889,0
519108,C5OK24E,Cl 5 Oe entre Kr 24E y 24F,3.44025833,-76.5474325,0
519109,K27C3O,Kr 27 entre Cl 3 y 2 Oe,3.43665528,-76.5449925,0
519110,K27C3,Kr 27 entre Cl 3 y 4,3.43543944,-76.54366444,0
519111,C1K13A,Cl 1 entre Kr 13A y 13,3.44420583,-76.54127917,0
519112,A1K2,Av 1 entre Kr 2 y Cl 2 OE,3.45108306,-76.54231306,0
519113,K24CC4OE,Kr 24C entre Cl 4 OE y 5 OE,3.44097694,-76.54412417,0
519115,C11OEK24,Cl 11 Oe con Kr 24D,3.44218083,-76.54881389,0
519117,C5K22,Cl 5 entre Kr  22 y 23,3.43944167,-76.53765167,0
519119,K10C10,Kr 10 entre Cl 10 y 11,3.44693139,-76.53231694,0
519120,K10C12,Kr 10 entre Cl 12 y 13,3.44749306,-76.53033917,0
519121,C21K10,Cl 21 entre Kr 9 y 10,3.44975806,-76.522875,0
519122,AV2OE,Av 2 Oeste,3.44707056,-76.55883028,0
519123,AV2OEC20,Av 2 Oeste con Cl 20,3.44764917,-76.56153583,0
519124,AV2OEATE,Av 2 Oeste Sector Atenas,3.44793167,-76.56373722,0
519125,AV2OC201,Av 2 Oeste con Cl 20,3.44761583,-76.56176583,0
519126,AV2OEBEL,Av 2 Oeste a Bellavista,3.44703694,-76.55918056,0
519127,K2OEC141,Kr 2 Oeste entre Cl 14 y Kr 2A1,3.44791056,-76.55651,0
519128,K4C12AO,Kr 4 entre Cl 12A y 13 Oeste,3.44522111,-76.55279972,0
519129,C13OK15,Cl 13 Oeste con Kr 15,3.44360083,-76.55386528,0
519130,C14OK23C,Cl 14 oeste entre Kr 23C y 24D,3.44155889,-76.55206472,0
519131,C14OK24C,Cl 14 Oeste entre Kr 24C y 24B,3.4419675,-76.55232389,0
519132,C14OK15,Cl 14 Oeste entre Kr 15 y 16,3.443345,-76.55394528,0
519133,K4C13O,Kr 4 entre Cl 13 y 12A Oeste,3.44518722,-76.5527275,0
519135,C5K6Y9,Cl 5 entre Kr 6 y 9 Clinica Comfenalco,3.44742833,-76.53693167,0
519136,C5K13,Cl 5 entre Kr 13 y 14,3.44418333,-76.53676,0
519138,C5K14Y13,Cl 5 entre Kr 14 y 13 Puente Peatonal,3.444355,-76.536535,0
519139,K10C15,Kr 10 entre Cl 15 y 16,3.44796639,-76.5270225,0
519140,K10C19,Kr 10 entre Cl 19 y 20,3.44885,-76.52370833,0
519141,K10C22A,Kr 10 entre Cl 22A y 23,3.44961806,-76.52061139,0
519142,C13K231,Cl 13 entre Kr 23 y 23A,3.43562111,-76.52835667,0
519144,C14OK24B,Cl 14 Oe entre Kr 24C y 24B,3.44206806,-76.55283722,0
519148,K23C13A,Kr 23 entre Cl 13A y 14,3.43585028,-76.52716222,0
519150,C15K23C,Cl 15 entre Kr 23C y 23,3.4353525,-76.52602778,0
519153,C15K23,Cl 15 entre Kr 23 y 23A,3.43540167,-76.52622389,0
519154,K25C18B,Kr 25 entre Cl 18B y 18C,3.43164556,-76.52385444,0
519155,K25C19A,Kr 25 entre Cl 19A y 19B,3.43223778,-76.52151556,0
519156,C23K25B,Cl 23 entre Kr 25B y 26 Santa Elena,3.43114611,-76.52080806,0
519157,K29C25,Kr 29 entre Cl 25 y 26B,3.42887583,-76.51950472,0
519159,K29C272,Kr 29 entre Cl 27 y 29,3.42853722,-76.516365,0
519160,K14C2Y2A,Kr 14 entre Cl 2 y 2A,3.44341417,-76.54034472,0
519161,A4NC3,Av 4N entre Cl 3 y 4 OE,3.45142917,-76.54405167,0
519162,K1C7OE,Kr 1 entre Cl 7 y 5 Oe,3.45359833,-76.54798944,0
519163,C8AV3,Cl 8 entre Av 3 y 4,3.454055,-76.53677583,0
519164,A4NC18,Av 4N entre Cl 18 y 19,3.45953333,-76.52940167,0
519165,A4NC21,Av 4N entre Cl 21 y 22,3.46161,-76.52786667,0
519166,A4NC23,Av 4N entre Cl 23 y 24,3.46396056,-76.52638722,0
519169,C25K11,Cl 25 entre Kr 11 y 11B,3.44916556,-76.51840722,0
519174,C21K7A,Cl 21 entre Kr 7 y 7A,3.45279944,-76.52359194,0
519175,C21K5,Cl 21 entre Kr 4 y 5,3.45535972,-76.52471222,0
519176,C8K6,Cl 8 entre Kr 6 y 8,3.44876556,-76.5346575,0
519181,A4OEC5,Av 4 Oeste con  Cl 5,3.45532472,-76.5481925,0
519182,A15OEC7,Av 15 Oeste con Cl 7,3.45799556,-76.54958222,0
519183,A15OEC9A,Av 15 Oeste Cl 9A,3.45950528,-76.55101917,0
519184,A15OC9A2,Av 15 Oeste Cl 9A 2,3.46018444,-76.55322139,0
519185,PRAUSA1,Puente del Rio Aguacatal Urbanizacion Se,3.45965944,-76.55562056,0
519186,C11OEK15,Cl 11 Oeste con Kr 15A,3.46191722,-76.55908472,0
519187,C14OEK12,Cl 14 Oeste con Kr 12A,3.46131889,-76.55998139,0
519188,A9OE,Av 9 Oeste,3.45960972,-76.5614,0
519189,A9OE2,Av 9 Oeste 2,3.4575775,-76.56317056,0
519190,A9AOE22A,Av 22 Oeste entre  Cl 22A y 23 Bis,3.455775,-76.5646125,0
519191,A9AOE24,Av 9A Oeste con Cl 24,3.4559325,-76.56520722,0
519192,A9AOE241,Av 9A Oeste con Cl 24 - 1,3.455865,-76.5655325,0
519193,A9AOE23B,Av 9A Oeste entre Cl 23 Bis y 22A,3.45561722,-76.56439,0
519194,A9OE1,Av 9 Oeste - 1,3.45778389,-76.56279889,0
519195,A9OE3,Av 9 Oeste - 3,3.460115,-76.56087111,0
519196,C14OK121,Cl 14 Oeste con Kr 12A Oeste,3.4607725,-76.55997333,0
519197,C11OK15A,Cl 11 Oeste con Kr 15A,3.46155667,-76.55905861,0
519198,PRAUSA2,Puente del Rio Aguacatal Urbanizacion Se,3.45951556,-76.55552361,0
519199,A15OC9A1,Av 15 Oeste con Cl 9A - 1,3.46005333,-76.55323972,0
519200,A15OC9A3,Av 15 Oeste con Cl 9A,3.45964389,-76.5513575,0
519201,A15OEC71,Av 15 Oeste con Cl 7 - 1,3.45784667,-76.54968583,0
519202,A40OEC51,Av 4 Oeste con Cl 5 - 1,3.45514694,-76.5481375,0
519205,C15K18A,Cl 15 entre Kr 18A y 19,3.44011056,-76.52611917,0
519206,K25C19B,Kr 25 entre Cl 19B y 19A,3.43233833,-76.52135056,0
519263,K27C4,Kr 27 entre Cl 4 y 5 Oe,3.43810417,-76.54581889,0
519264,K27C5OE,Kr 27 entre  Cl 5  y 4 Oe,3.43822056,-76.54590972,0
519266,C5K7,Cl 5 entre Kr 7 y 6,3.44803167,-76.53681833,0
519270,C5K15C6,Cl 5 entre Kr 15 y Cl 6,3.44166667,-76.5363,0
519281,C9K14A,Cl 9 entre Kr 14A y 14,3.44284028,-76.53318889,0
519282,C5K27,Cl 5 entre Kr 27 y 34,3.43363528,-76.54202694,0
519283,C15K16,Cl 15 entre Kr 16 y 17,3.44156389,-76.52612667,0
519284,C21K11B,Cl 21 entre Kr 11B y 11D,3.44733,-76.52217722,0
519288,K15C7,Kr 15 entre Cl 7 y 5,3.44104528,-76.53523944,0
600100,TMENGA1,Terminal Menga C1,3.48919806,-76.50918028,0
600101,TMENGA2,Terminal Menga C2,3.48910306,-76.5089375,0
600102,TMENGA3,Terminal Menga C3,3.48896611,-76.50851528,0
600103,TMENGA4,Terminal Menga C4,3.48886056,-76.50816167,0
600104,TMENGA5,Terminal Menga B1,3.48921056,-76.50795667,0
600105,TMENGA6,Terminal Menga B2,3.48930028,-76.50823611,0
600106,TMENGA7,Terminal Menga B3,3.48939528,-76.50861083,0
600107,TMENGA8,Terminal Menga B4,3.48945833,-76.50890639,0
600108,TMENGA9,Terminal Menga A1,3.48941528,-76.50773806,0
600109,TMENGA10,Terminal Menga A2,3.48947833,-76.50791222,0
600110,TMENGA11,Terminal Menga A3,3.48953639,-76.5081075,0
600111,TMENGA12,Terminal Menga A4,3.48956889,-76.50827528,0
600112,TMENGA13,Terminal Menga A5,3.48960472,-76.50843972,0
600156,A.SANIN7,Terminal Andres Sanin D3,3.44349556,-76.48309778,0
600158,A.SANI10,Terminal Andres Sanin E3,3.44337667,-76.48265444,0
600159,A.SANI11,Terminal Andres Sanin E2,3.44337111,-76.48308667,0
600161,A.SANI13,Terminal Andres Sanin C5,3.44382639,-76.48357861,0
600162,A.SANI14,Terminal Andres Sanin D1,3.44348861,-76.48359917,0
600163,A.SANI15,Terminal Andres Sanin E1,3.44334194,-76.48351694,0
600164,A.SANI16,Terminal Andres Sanin D4,3.44350417,-76.48275778,0
600165,A.SANI17,Terminal Andres Sanin D5,3.44351,-76.48255917,0
600166,A.SANIN9,Terminal Andres Sanin A1,3.44401861,-76.48342778,0
600200,CHIMI3,Chiminangos A2,3.48138833,-76.49837833,0
600201,CHIMI2,Chiminangos B1,3.48160167,-76.49807667,0
600250,FLORAI1,Flora Industrial A1,3.47815833,-76.50242833,0
600251,FLORAI2,Flora Industrial B1,3.478355,-76.502095,0
601850,UDP1,Unidad Deportiva A1,3.41527167,-76.54840167,0
601851,UDP2,Unidad Deportiva B1,3.41458667,-76.54823833,0
601853,UDP4,Unidad Deportiva B2,3.41499333,-76.54822667,0
601854,UDP5,Unidad Deportiva A3,3.41447667,-76.54845,0
601855,UDP6,Unidad Deportiva B3,3.41534083,-76.54824639,0
602100,CAPRI1,Capri A1,3.38828,-76.545085,0
602101,CAPRI2,Capri B1,3.38782361,-76.54479528,0
602103,CAPRI4,Capri B2,3.38828,-76.54486167,0
602300,UNIV1,Universidades A1,3.367005,-76.52925167,0
602303,UNIV4,Universidades B2,3.36718333,-76.529395,0
602600,N.LATIR2,Nuevo Latir B1,3.41832444,-76.48674361,0
602601,N.LATIR1,Nuevo Latir A1,3.41847861,-76.48684028,0
612022,A3NC31,Av 3N entre Cl 31 y 30,3.47064083,-76.52206083,0
613142,C73K4,Cl 73 entre Kr 4 y 3,3.47123694,-76.48120722,0
614331,K28FC12C,Kr 28F entre Cl 122B y 122C,3.40229556,-76.473015,0
614403,T103K28B,Tr 103 entre Kr 28B y 28A,3.41419556,-76.47931111,0
614405,RPETM,Retorno Patio ETM,3.40540833,-76.47558611,0
614432,K28DC79,Kr 28D Con Cl 79,3.41856667,-76.48694639,0
614465,K26JC121,Kr 26J entre Cl 121 y 122,3.41813944,-76.46787056,0
4,PTP_SAL,Patio Taller Pizamos_Salida,3.40383472,-76.47622806,0
5,PPM_SAL,Puerto Mallarino,3.4304725,-76.47488111,0
6,PPM_ENT,Puerto Mallarino,3.4304725,-76.47488111,0
9,PVL-SAL,Patio Valle Lili,3.3588975,-76.51260778,0
10,PVL-ENT,Patio Valle Lili,3.35891611,-76.51249861,0
21,PCS-SAL,Patio Calima-Sameco Salida,3.4969925,-76.50469139,0
22,PCS-ENT,Patio Calima-Sameco Entrada,3.4969925,-76.50469139,0
41,PTP_ENT,Patio Taller Pizamos_Entrada,3.40379389,-76.47624833,0
500050,T.C-A1,T.Canaveralejo A1,3.41476833,-76.54962139,0
500051,T.C-A2,T.Canaveralejo A2,3.41454278,-76.54957278,0
500052,T.C-A3,T.Canaveralejo A3,3.41441444,-76.549365,0
500053,T.C-A4,T.Canaveralejo A4,3.41448667,-76.5491425,0
500054,T.C-A5,T.Canaveralejo A5,3.41466389,-76.5490925,0
500055,T.C-A7,T.Canaveralejo A7,3.41504694,-76.5489525,0
500056,T.C-A6,T.Canaveralejo A6,3.41486056,-76.54900667,0
500058,T.C-A8,T.Canaveralejo A8,3.41517861,-76.54891333,0
500060,T.C-A9,T.Canaveralejo A9,3.415325,-76.54896611,0
500061,T.C-A10,T.Canaveralejo A10,3.41536667,-76.54908306,0
500062,T.C-A11,T.Canaveralejo A11,3.41539444,-76.54923083,0
500063,T.C-A12,T.Canaveralejo A12,3.41530972,-76.54937333,0
500100,TMENGA1,Terminal Menga C1,3.48930667,-76.50904167,0
500101,TMENGA2,Terminal Menga C2,3.48910306,-76.5089375,0
500102,TMENGA3,Terminal Menga C3,3.48910667,-76.50828,0
500103,TMENGA4,Terminal Menga C4,3.4889,-76.50791,0
500104,TMENGA5,Terminal Menga B1,3.48928833,-76.50795833,0
500105,TMENGA6,Terminal Menga B2,3.48930028,-76.50823611,0
500106,TMENGA7,Terminal Menga B3,3.489515,-76.50870667,0
500107,TMENGA8,Terminal Menga B4,3.48945833,-76.50890639,0
500108,TMENGA9,Terminal Menga A1,3.48941528,-76.50773806,0
500109,TMENGA10,Terminal Menga A2,3.48947833,-76.50791222,0
500110,TMENGA11,Terminal Menga A3,3.48953639,-76.5081075,0
500111,TMENGA12,Terminal Menga A4,3.48956889,-76.50827528,0
500112,TMENGA13,Terminal Menga A5,3.48960472,-76.50843972,0
500113,TMENGA14,Terminal Menga A6,3.48965222,-76.50861389,0
500114,TMENGA15,Terminal Menga A7,3.48969417,-76.50878278,0
500150,A.SANIN1,Terminal Andres Sanin B1,3.44380222,-76.48254306,0
500151,A.SANIN2,Terminal Andres Sanin B2,3.44387611,-76.48310333,0
500152,A.SANIN3,Terminal Andres Sanin B3,3.44393694,-76.48358722,0
500153,A.SANIN4,Terminal Andres Sanin C1,3.44368472,-76.48253694,0
500154,A.SANIN5,Terminal Andres Sanin C3,3.44375639,-76.48306028,0
500155,A.SANIN6,Terminal Andres Sanin C4,3.44380556,-76.48340583,0
500156,A.SANIN7,Terminal Andres Sanin D3,3.44354333,-76.48295167,0
500158,A.SANI10,Terminal Andres Sanin E3,3.44337667,-76.48265444,0
500159,A.SANI11,Terminal Andres Sanin E2,3.44342167,-76.48298833,0
500160,A.SANI12,Terminal Andres Sanin C2,3.44371222,-76.48273083,0
500161,A.SANI13,Terminal Andres Sanin C5,3.44382639,-76.48357861,0
500162,A.SANI14,Terminal Andres Sanin D1,3.44348861,-76.48359917,0
500163,A.SANI15,Terminal Andres Sanin E1,3.44334194,-76.48351694,0
500164,A.SANI16,Terminal Andres Sanin D4,3.44350417,-76.48275778,0
500165,A.SANI17,Terminal Andres Sanin D5,3.44351,-76.48255917,0
500166,A.SANIN9,Terminal Andres Sanin A1,3.44401861,-76.48342778,0
500200,CHIMI3,Chiminangos A2,3.481915,-76.49791167,0
500201,CHIMI2,Chiminangos B1,3.48160167,-76.49807667,0
500202,CHIMI1,Chiminangos A1,3.48178639,-76.49809556,0
500203,CHIMI4,Chiminangos B2,3.48196389,-76.49778833,0
500250,FLORAI1,Flora Industrial A1,3.4782025,-76.50237833,0
500251,FLORAI2,Flora Industrial B1,3.478355,-76.502095,0
500300,SALOM1,Salomia A1,3.473625,-76.50695,0
500301,SALOM2,Salomia B1,3.47385167,-76.506555,0
500350,POPU1,Popular A1,3.46947,-76.51088667,0
500353,POPU4,Popular B2,3.46967833,-76.510565,0
500400,MZAN1,Manzanares A1,3.466125,-76.513435,0
500401,MZAN2,Manzanares B1,3.46632,-76.51322,0
500450,FATI1,Fatima A1,3.46289,-76.51752,0
500451,FATI2,Fatima B1,3.46297667,-76.517225,0
500500,RIOC1,Rio Cali A1,3.46043,-76.52534333,0
500600,TORRE1,Torre de Cali A1,3.45697833,-76.53030667,0
500601,TORRE2,Torre de Cali B1,3.45674833,-76.53030833,0
500602,TORRE3,Torre de Cali A2,3.45654833,-76.53053667,0
500603,TORRE4,Torre de Cali B2,3.45712,-76.53004833,0
500650,PILOT2,Piloto B1,3.46014167,-76.52232333,0
500700,SANIC2,San Nicolas B1,3.45859333,-76.52557667,0
500750,ERMI1,La Ermita A1,3.45364833,-76.53168167,0
500751,ERMI3,La Ermita A2,3.453235,-76.53150333,0
500800,CAICED1,Plaza de Caicedo A1,3.45240833,-76.53134333,0
500850,CENTRO1,Centro A1,3.44856833,-76.53014833,0
500851,CENTRO3,Centro A2,3.44811333,-76.53000333,0
500900,STROSA1,Santa Rosa A1,3.44723333,-76.52975833,0
500950,FRAY1,Fray Damian A1,3.44399833,-76.52895167,0
500951,FRAY3,Fray Damian A2,3.44350333,-76.52878833,0
500952,FRAY5,Fray Damian A3,3.44312667,-76.52873,0
501000,SANBO1,San Bosco A1,3.44234,-76.532455,0
501001,SANBO2,San Bosco B1,3.442245,-76.532565,0
501002,SANBO3,San Bosco A2,3.44220833,-76.53286,0
501003,SANBO4,San Bosco B2,3.44235333,-76.53210833,0
501050,7AGO1,7 de Agosto A1,3.44531167,-76.48706667,0
501051,7AGO2,7 de Agosto B1,3.44520667,-76.4872,0
501052,7AGO3,7 de Agosto A2,3.44522833,-76.48744667,0
501053,7AGO4,7 de Agosto B2,3.44535833,-76.486725,0
501100,TREB1,Trebol A1,3.44362333,-76.49610667,0
501101,TREB2,Trebol B1,3.44346,-76.49585833,0
501150,VICOL1,Villa Colombia A1,3.44396167,-76.49896667,0
501151,VICOL2,Villa Colombia B1,3.44376,-76.49870667,0
501200,CHAPI1,Chapinero A1,3.444395,-76.50232,0
501201,CHAPI2,Chapinero B1,3.44423833,-76.50207833,0
501250,ATGI1,Atanasio Girardot A1,3.444905,-76.50843667,0
501251,ATGI2,Atanasio Girardot B1,3.44475833,-76.50812833,0
501300,FLORE1,Floresta A1,3.44534833,-76.51471,0
501301,FLORE2,Floresta B1,3.44526,-76.51444333,0
501350,BELAL1,Belalcazar A1,3.44417667,-76.52084,0
501351,BELAL2,Belalcazar B1,3.44414,-76.52053333,0
501400,SANPAS1,San Pascual A1,3.442705,-76.52714667,0
501401,SANPAS2,San Pascual B1,3.44263333,-76.52771583,0
501402,SANPAS3,San Pascual A2,3.44272,-76.52756833,0
501403,SANPAS4,San Pascual B2,3.442665,-76.527295,0
501405,SANPAS6,San Pascual B3,3.442595,-76.52680667,0
501450,SUCRE2,Sucre B1,3.44355333,-76.52622667,0
501451,SUCRE4,Sucre B2,3.44397667,-76.52636167,0
501500,PTCUY2,Petecuy B1,3.44870833,-76.52776667,0
501501,PTCUY4,Petecuy B2,3.44917472,-76.52793139,0
501502,PTCUY6,Petecuy B3,3.44963667,-76.52809167,0
501550,SANPED2,San Pedro B1,3.4541,-76.52995,0
501551,SANPED4,San Pedro B2,3.45448833,-76.53009667,0
501552,SANPED6,San Pedro B3,3.45491333,-76.53029,0
501600,SNTLIB1,Santa Librada A1,3.43999167,-76.53690167,0
501601,SNTLIB2,Santa Librada B1,3.43961167,-76.537175,0
501602,SNTLIB3,Santa Librada A2,3.43938833,-76.53738167,0
501603,SNTLIB4,Santa Librada B2,3.44020333,-76.53664833,0
501650,MANZA1,Manzana del Saber A1,3.43495333,-76.54093,0
501651,MANZA2,Manzana del Saber B1,3.43478333,-76.54092167,0
501652,MANZA3,Manzana del Saber A2,3.43463,-76.54122667,0
501653,MANZA4,Manzana del Saber B2,3.43521833,-76.540705,0
501700,ESTAD1,Estadio A1,3.43189833,-76.54316167,0
501701,ESTAD2,Estadio B1,3.43172167,-76.54311667,0
501702,ESTAD3,Estadio A2,3.431525,-76.54342833,0
501703,ESTAD4,Estadio B2,3.43215833,-76.54295,0
501750,TEQUE1,Tequendama A1,3.42356667,-76.54703,0
501751,TEQUE2,Tequendama B1,3.42343,-76.547,0
501752,TEQUE3,Tequendama A2,3.423135,-76.547205,0
501753,TEQUE 4,Tequendama B2,3.423815,-76.54685167,0
501800,LIDO1,Lido A1,3.41891167,-76.54839167,0
501801,LIDO2,Lido B1,3.41871833,-76.54824167,0
501802,LIDO3,Lido A2,3.41843333,-76.54834833,0
501803,LIDO4,Lido B2,3.41914667,-76.548225,0
501850,UDP1,Unidad Deportiva A1,3.41527167,-76.54840167,0
501851,UDP2,Unidad Deportiva B1,3.41458667,-76.54823833,0
501852,UDP3,Unidad Deportiva A2,3.41494167,-76.54854,0
501853,UDP4,Unidad Deportiva B2,3.41499333,-76.54822667,0
501854,UDP5,Unidad Deportiva A3,3.41447667,-76.54845,0
501855,UDP6,Unidad Deportiva B3,3.41543,-76.54827833,0
501900,PLATOR1,Plaza de Toros A1,3.40960417,-76.54746333,0
501901,PLATOR2,Plaza de Toros B1,3.40987,-76.54744833,0
501950,PAMPA1,Pampalinda A1,3.40359333,-76.54687333,0
501951,PAMPA2,Pampalinda B1,3.40386667,-76.54678167,0
502000,REFUG1,Refugio A1,3.39859889,-76.5464675,0
502001,REFUG2,Refugio B1,3.39891833,-76.546405,0
502050,CALDAS1,Caldas A1,3.394255,-76.54599333,0
502051,CALDAS2,Caldas B1,3.39397833,-76.54582333,0
502100,CAPRI1,Capri A1,3.38828,-76.545085,0
502101,CAPRI2,Capri B1,3.387815,-76.54479833,0
502102,CAPRI3,Capri A2,3.38772833,-76.54499,0
502103,CAPRI4,Capri B2,3.38828,-76.54486167,0
502150,MELEN1,Melendez A1,3.37701,-76.54277833,0
502151,MELEN2,Melendez B1,3.37730667,-76.54279,0
502200,BUITRE1,Buitrera A1,3.372535,-76.539995,0
502201,BUITRE2,Buitrera B1,3.37282833,-76.540475,0
502250,UNIVAL1,Univalle A1,3.37068667,-76.536625,0
502251,UNIVAL2,Univalle B1,3.370985,-76.53685167,0
502300,UNIV1,Universidades A1,3.367005,-76.52925167,0
502301,UNIV2,Universidades B1,3.36709,-76.52905,0
502302,UNIV3,Universidades A2,3.36682167,-76.52896,0
502303,UNIV4,Universidades B2,3.36718333,-76.529395,0
502304,UNIVCOM1,Universidades C1,3.36655583,-76.52821083,0
502305,UNIVCOM2,Universidades D1,3.36661667,-76.52819417,0
502350,VERSALL1,Versalles A1,3.46115167,-76.52710167,0
502351,VERSALL2,Versalles B1,3.46129333,-76.52690333,0
502400,L.AMERI1,Las Americas A1,3.46351667,-76.52530833,0
502401,L.AMERI2,Las Americas B1,3.46373,-76.52514167,0
502450,PRADNOR1,Prados del Norte A1,3.47439167,-76.5197,0
502451,PRADNOR2,Prados del Norte B1,3.47436167,-76.51947833,0
502500,VIPASA1,Vipasa A1,3.478595,-76.51705833,0
502501,VIPASA2,Vipasa B1,3.47875333,-76.51688667,0
502550,ALAMOS1,Alamos A1,3.48446,-76.51338667,0
502551,ALAMOS2,Alamos B1,3.48468833,-76.51325,0
502600,N.LATIR2,Nuevo Latir B1,3.41832444,-76.48674361,0
502601,N.LATIR1,Nuevo Latir A1,3.41847861,-76.48684028,0
502650,AMANECE2,Amanecer B1,3.42143972,-76.49077639,0
502651,AMANECE1,Amanecer A1,3.42158306,-76.49088111,0
502700,TRONCAL2,Troncal Unida B1,3.42472889,-76.49453278,0
502701,TRONCAL1,Troncal Unida A1,3.42487694,-76.49461639,0
502750,CONQUIS2,Conquistadores B1,3.42697944,-76.50525667,0
502751,CONQUIS1,Conquistadores A1,3.42710556,-76.50530861,0
502800,VLNUEVA2,Villa Nueva B1,3.432075,-76.51014417,0
502801,VLNUEVA1,Villa Nueva A1,3.43216278,-76.510235,0
502850,ST.MONI2,Santa Monica B1,3.43453194,-76.51391583,0
502851,ST.MONI1,Santa Monica A1,3.43459889,-76.51394694,0
502900,PRIMITI2,Primitivo B1,3.43795583,-76.51854444,0
502901,PRIMITI1,Primitivo A1,3.43804167,-76.51861611,0
502950,C.PALOS2,Cien Palos B1,3.43973667,-76.52276389,0
502951,C.PALOS1,Cien Palos A1,3.43977972,-76.52284722,0
511005,C13K100,Cl 13 con Kr 100,3.37356972,-76.5371675,0
511006,C13K89,Cl 13 entre Kr 89 y 100,3.37470444,-76.53746056,0
511008,C13K87,Cl 13 entre Kr 87 y 89,3.37826583,-76.53765833,0
511011,C13K86,Cl 13 con Kr 86,3.380245,-76.53763667,0
511012,C13K831,Cl 13 con Kr 83 y 85,3.38231333,-76.538205,0
511016,C25K101,Cl 25 entre Kr 101 y 102,3.36234167,-76.52443833,0
511018,K98C25,Kr 98 entre Cl 25 y 28,3.37073222,-76.52304972,0
511019,C42K84,Cl 42 entre Kr 84 y 85,3.38308583,-76.52044861,0
511020,C25UAUT,Cl 25 entre Kr 114A y 118,3.35337833,-76.523485,0
511021,C25UAUT2,Cl 25 entre Kr 117 y 114A,3.35358833,-76.52324833,0
511031,K127C18A,Kr 127 entre Cl 18A y 18,3.33343611,-76.5320575,0
511033,C25K99,Cl 25 entre Kr 99 y 98B,3.36881306,-76.52471611,0
511034,K99C25,Kr 99 entre Cl 25 y 30 La 14 del Lili,3.36731444,-76.52330722,0
511035,K122C151,Kr 122 entre Cl 16 y 15,3.34280778,-76.53685361,0
511036,K122C152,Kr 122 entre Cl 15 y 16,3.34269722,-76.53657528,0
511037,K122C121,Kr 122 entre Cl 13 y 12,3.342625,-76.54065833,0
511038,K122C122,Kr 122 entre Cl 12 y 13,3.34233389,-76.54116333,0
511039,K122C61,Kr 122 entre Cl 12 y 6,3.34254694,-76.54412444,0
511040,K122C62,San Buenaventura2,3.342185,-76.54347417,0
511043,K118C241,Kr 118 entre Cl 25 y 22,3.35090194,-76.52514583,0
511044,K118C201,Kr 118 entre Cl 20 y 18,3.35071222,-76.52909917,0
511045,K122C17A,Kr 122 entre Cl 17A y 16,3.34306806,-76.53284028,0
511046,C18CARU1,Cl 18 entre Kr 122 y 121,3.34381083,-76.53080889,0
511048,VBUITREY,Via a la Buitrera La Y,3.36360639,-76.55778056,0
511049,VBUIRAPI,Via a la Buitrera Rapitienda La Buitrera,3.36476806,-76.56288056,0
511050,VBUIDIAN,Via a la Buitrera Colegio Diana Oese,3.36597333,-76.56442,0
511051,VBUIFERR,Via a la Buitrera Ferreteria el Portento,3.36868833,-76.56240472,0
511052,VBUIGIRA,Via a la Buitrera Girasoles Web Cafe,3.37193,-76.56418944,0
511053,VBUIPIED,Via a la Buitrera Sector Las Piedras Km ,3.37617972,-76.56514778,0
511054,VBUIPIE2,Via a la Buitrera Las Piedras,3.37608917,-76.56512417,0
511056,VBUIMACO,Via a la Buitrera Callejon Macondo,3.38268028,-76.57173222,0
511059,VBUITIEN,Via a la Buitrera Tienda Inicio de ruta,3.38284583,-76.57814111,0
511061,VBUIFINC,Via a la Buitrera Finca Santa Ana,3.38244,-76.57151833,0
511062,VBUIGOLD,Via a la Buitrera Golden Net,3.37902389,-76.5683375,0
511064,VBUISECT,Via a la Buitrera Sector Girasoles,3.37218528,-76.56434722,0
511066,VBUIFER,Via a la Buitrera Ferreteria La Buitrera,3.36655778,-76.56459306,0
511067,VBUICOLE,Via a la Buitrera Colegio,3.36484611,-76.56304583,0
511068,VBUIY2,Via a la Buitrera Y,3.36362722,-76.55795083,0
511069,C13K101A,Cl 13 entre Kr 101A y 102,3.36850944,-76.53731222,0
511070,VBUIPINO,Via a la Buitrera Los Pinos,3.36322861,-76.55503417,0
511071,VBUILOSP,Via a la Buitrera Los Pinos,3.36320528,-76.55521972,0
511072,C4OK94P,Cl 4 Oe con Kr 94,3.376055,-76.55960083,0
511073,VBUISENA,Via a la  Buitrera SENA-1,3.36410028,-76.55981,0
511074,VBUISEN2,Via a la  Buitrera SENA,3.36403861,-76.56004056,0
511075,VBUICO,Via a la Buitrera Colacteos,3.36627472,-76.56199917,0
511076,VBUICOLA,Via a la Buitrera Colacteos,3.36622639,-76.5620625,0
511077,VBUIDUQU,Via a la Buitrera Duquelandia,3.37653139,-76.56711583,0
511078,VBUIPANA,Via a la Buitrera Panaderia Nueva Vida,3.37962361,-76.56841222,0
511079,VBUILAJA,Via a la Buitrera Colegio Las Lajas,3.38156028,-76.56916861,0
501452,SUCRE6,Sucre B3,3.44445667,-76.526545,0
516053,C13K701,Cl 13 entre Kr 70 y 72,3.39282667,-76.53843167,0
516054,C13K7572,Cl 13 entre Kr 75 y 72,3.39192111,-76.53830861,0
516055,C13K65AB,Cl 13 entre Kr 65A Bis y 65B,3.39896,-76.5378,0
516056,C13K68,Cl 13 entre Kr 68 y 66,3.39718,-76.53783167,0
516057,C13K59,Cl 13 entre Kr 59 y 64,3.4017175,-76.53690306,0
516058,C13K65,Cl 13 entre Kr 65 y 64A,3.40104222,-76.53688,0
516059,C13K56,Cl 13 con Kr 56,3.40490667,-76.53587167,0
516060,C13K57,Cl 13 entre Kr 57 y 56,3.404005,-76.53587833,0
516061,C13K551,Cl 13 entre Kr 50 y 53,3.40708833,-76.53516667,0
516062,C13K552,Cl 13 entre Kr 56 y 53,3.40666167,-76.53502833,0
516063,C13K49A,Cl 13 entre Kr 49A y 49B,3.40967472,-76.53435028,0
516064,C13K50,Cl 13 entre Kr 50 y 49A,3.40926639,-76.53424056,0
516065,C13K47A,Cl 13 entre Kr 47A y 47,3.41191833,-76.53343667,0
516066,C13K47,Cl 13 entre Kr 47 y 47A,3.411965,-76.53352,0
516067,C13K44A,Cl 13 entre Kr 45 y 44A,3.41357861,-76.53283889,0
516068,C13K44,Cl 13 entre Kr 44 y 44A,3.413985,-76.532845,0
516069,C13K41A1,Cl 13 entre Kr 41A y 42,3.41673833,-76.53194,0
516070,C13K41A2,Cl 13 entre Kr 41A y 41,3.41672333,-76.53184833,0
516071,C13K37,Cl 13 entre Kr 37 y 38,3.42066528,-76.5307175,0
516072,C13K39,Cl 13 entre Kr 39 y 38,3.419785,-76.53084,0
516073,C13K341,Cl 13 entre Kr 34 y 35,3.42298222,-76.5299975,0
516074,C13K342,Cl 13 entre Kr 34 y 33A,3.42365833,-76.529555,0
516076,C13K32A,Cl 13 entre Kr 32 y 31,3.42637611,-76.52868472,0
516077,C13K32,Cl 13 entre Kr 32 y 33,3.42504139,-76.529305,0
516078,C13C141,Cl 13 con Cl 141,3.42930194,-76.52768167,0
516079,C13C14,Cl 13 con Cl 14,3.4294975,-76.52726639,0
516080,K46C522,Kr 46 entre Cl 52 y 51A,3.39931778,-76.50831667,0
516081,K46C48,Kr 46 entre Cl 48 y 47,3.40216722,-76.51101556,0
516082,K46C462,Kr 46 entre Cl 46 y 45,3.4032825,-76.51213361,0
516084,K46C452,Kr 46 entre Cl 45 y 44,3.40448444,-76.51324944,0
516085,K46C42A1,Kr 46 entre Cl 42 y 43,3.40555944,-76.5144675,0
516088,K46C402,Kr 46 entre Cl 40 y 39,3.4079375,-76.51651611,0
516089,K46C371,Kr 46 entre Cl 37 y 38A,3.40879278,-76.51761194,0
516090,K46C372,Kr 46 entre Cl 37 y 36,3.40910667,-76.51753333,0
516091,C27K431,Cl 27 entre Kr 43A y 45A,3.41018889,-76.51829278,0
516092,C27K36,Cl 27 entre Kr 36 y 44,3.41079,-76.51801667,0
516093,C27K42B1,Cl 27 entre Kr 42B y 43,3.41272833,-76.51800167,0
516094,C27K42B2,Cl 27 entre Kr 42B y 42A,3.413605,-76.51770833,0
516096,C27K422,Cl 27 entre Kr 42 y 41D,3.41481111,-76.51765361,0
516099,C27K371,Cl 27 entre Kr 37A y 39,3.41960972,-76.517465,0
516100,C27K392,Cl 27 entre Kr 39 y 37,3.4197675,-76.5172825,0
516103,C46K42C2,Cl 46 entre Kr 42C y 42B,3.40599333,-76.50902,0
516106,K41BC46,Kr 41B entre Cl 46 y 47,3.40873833,-76.50488861,0
516107,C54K41DE,Cl 54 entre Kr 41D y 41E,3.40330306,-76.50304778,0
516108,C54K42B1,Cl 54 entre Kr 42B y 42C,3.401205,-76.50528833,0
516109,K41BC47,Kr 41B entre Cl 47 y 46,3.40901,-76.50481778,0
516110,C13K671,Cl 13 entre Kr 67 y 68,3.39600167,-76.53817167,0
516111,K41BC45,Kr 41B entre Cl 45 y 44,3.41077278,-76.50645083,0
516112,K42C26,Kr 42 entre Cl 25 y 26B,3.414235,-76.52057917,0
516113,K41BC42A,Kr 41B entre Cl 42A y 42,3.41218306,-76.50776722,0
516114,K41BC41,Kr 41B entre Cl 41 y 42,3.41245444,-76.50835917,0
516115,K41BC44,Kr 44 entre Cl 44 y 45,3.41061444,-76.50666083,0
516119,K56C18,Kr 56 entre Cl 18 y 18A,3.40166889,-76.52529861,0
516120,C25K56,Cl 25 entre Kr 56 y 61,3.40074861,-76.52367556,0
516122,C10K50,Cl 10 entre Kr 50 y 53,3.40891833,-76.53942167,0
516124,K66C17,Kr 66 entre Cl 17 y 18,3.39723056,-76.526285,0
516127,K56C18A,Kr 56 entre Cl 18A y 18,3.40189833,-76.52534694,0
516128,K56C16,Kr 56 entre Cl 16 y 15,3.40287139,-76.52832389,0
516129,C14K58,Cl 14 entre Kr 58 y 65,3.40177056,-76.53198861,0
516130,C14K65,Cl 14 entre Kr 65 y 65C,3.39945194,-76.53247083,0
516131,K50C9,Kr 50 entre Cl 9 y 9B,3.410775,-76.54094333,0
516132,K50C12A,Kr 50 entre C12A y 13,3.40894389,-76.53547389,0
516133,K50C13E,Kr 50 entre Cl 13E,3.40766944,-76.5315475,0
516134,K42C26D,Kr 42 entre Cl 26D y 27,3.41429889,-76.51846194,0
516135,K25C18D,Kr 25 entre Cl 18D y 18C,3.43205222,-76.52344556,0
516137,K44C12,Kr 44 entre Cl 12 y 12B,3.41482722,-76.53444694,0
516138,C25K70,Cl 25 entre Kr 70 y 69 Hacienda,3.39286694,-76.52368,0
516139,C25K69A,Cl 25 entre Kr 69A y 70 Clinica Comfandi,3.39277972,-76.52437472,0
516140,C25K69,Cl 25 entre Kr 69 y 68B,3.395835,-76.52345278,0
516141,K69C26,Kr 69 entre Cl 26 y 29,3.39456139,-76.52206472,0
516142,C42K69,Cl 42 entre Kr 69 y 68,3.39460222,-76.51877444,0
516143,C42K63,Cl 42 entre Kr 63 y 55,3.39596306,-76.51735583,0
516144,K50C41,Kr 50 entre Cl 41 y 40A,3.39758333,-76.51743194,0
516145,D65K50,Dg 65 entre Kr 50 y 33,3.39916361,-76.52138028,0
516146,C16K65,Cl 16 entre Kr 65 y 62,3.399575,-76.52760111,0
516147,C16K56,Cl 16 entre Kr 56 y 53,3.40421639,-76.52732167,0
516148,C16K49A,Cl 16 entre Kr 49A y 49,3.40764639,-76.52655194,0
516149,C16K46A,Cl 16 entre Kr 46A y 46,3.41068806,-76.52558889,0
516150,C17K37A,Cl 17 entre Kr 37A y 36B,3.42035222,-76.52412639,0
516151,C17K33A,Cl 17 entre Kr 33A y 33,3.42371556,-76.52427833,0
516152,C17K32,Cl 17 entre Kr 32 y 31A,3.42600528,-76.52437667,0
516153,C17K29B,Cl 17 entre Kr 29B y 29A,3.42827111,-76.52449861,0
516154,K25C17,Kr 25 entre Cl 17A y 17,3.43053556,-76.52555583,0
516155,K25C18A,Kr 25 entre Cl 18A y 17A,3.43099361,-76.52492,0
516156,C15K29A,Cl 15 entre Kr 29A y 30,3.42624889,-76.52605111,0
516157,C15K33,Cl 15 entre Kr 33 y 33A,3.42373917,-76.52597361,0
516158,K35C16,Kr 35 entre Cl 16 y 17,3.42151389,-76.52526,0
516159,K35C18,Kr 35 entre Cl 18 y 19,3.42163139,-76.52279806,0
516160,C23K36C,Cl 23 entre Kr 36C y 39,3.41987444,-76.52199833,0
516161,C23K40A,Cl 23 entre Kr 40A y 40B,3.41740722,-76.5222625,0
516162,C23K42A,Cl 23 entre Kr 42A y 42B,3.41312083,-76.5227425,0
516163,C23K45,Cl 23 entre Kr 45 y 46,3.41035583,-76.52304139,0
516164,C23K49,Cl 23 entre Kr 49 y 49A,3.40704083,-76.52339583,0
516165,K50C18,Kr 50 entre Cl 18 y 17A,3.40593222,-76.52518611,0
516166,C16K53,Cl 16 entre Kr 53 y 56,3.40420417,-76.52752361,0
516167,C16K561,Cl 16 entre Kr 56 y 65,3.40006361,-76.52782028,0
516168,C36K40,Cl 36 entre Kr 40 y  40A,3.41750639,-76.51040528,0
516169,C36K41A,Cl 36 entre Kr 41A y 41B,3.41617222,-76.51178444,0
516170,C36K42A,Cl 36 entre Kr 42A y 42B,3.41320556,-76.51488222,0
516171,C36K44,Cl 36 entre Kr 43 y 44,3.41120417,-76.51695889,0
516177,C13K69,Cl 13 entre Kr 69 y 68,3.39485778,-76.53804861,0
516184,C16K69,Cl 16 con Kr 69,3.39476083,-76.52790778,0
516185,K66C13E,Kr 66 entre Cl 13E y 13D,3.39810944,-76.53400444,0
516186,K66C13B,Kr 66 entre Cl 13B y 13,3.39813028,-76.53662333,0
516187,K66C131,Kr 66 entre Cl 13 y 12,3.39814389,-76.53877889,0
516192,C25K731,Cl 25 entre Kr 73 y 70,3.390685,-76.52398667,0
516193,C25K73,Cl 25 entre Kr 70 y 73,3.39062667,-76.52451667,0
516194,C25K68A,Cl 25 entre Kr 68A y 68,3.39635167,-76.52317333,0
516195,C25K66,Cl 25 entre Kr 66 y 68,3.39563833,-76.524385,0
516196,C25D66,Cl 25 entre Dg 66 y 65,3.39833333,-76.52298667,0
516197,K66C18,Kr 66 entre Cl 25 y 18,3.39736944,-76.52628944,0
516198,K66C16,Kr 66 entre Cl 16 y 14C,3.39766556,-76.52869556,0
516200,K66C14C,Kr 66 entre Cl 14C y 14,3.39799333,-76.53117833,0
516202,C14K66,Cl 14 entre Kr 66 y 65,3.39905306,-76.53220556,0
516203,C14K64B,Cl 14 entre Kr 64Bis y 64A,3.40189667,-76.53168333,0
516204,C14K56,Cl 14 entre Kr 56 y 54,3.40442583,-76.53105611,0
516205,C14K54,Cl 14 entre Kr 54 y 56,3.40462778,-76.53120944,0
516206,C14K53,Cl 14 entre Kr 53 y 50,3.40653528,-76.53049944,0
516207,C14K50,Cl 14 entre Kr 50 y 53,3.40684722,-76.53065694,0
516209,C14K47,Cl 14 entre Kr 47 y 50,3.40996611,-76.52974361,0
516211,C14K442,Cl 14 entre Kr 44 y 45,3.41242833,-76.52905833,0
516212,C14K43,Cl 14 entre Kr 43 y 42,3.41507111,-76.52811528,0
516213,C14K42BS,Cl 14 entre Kr 42Bs y 43,3.41508444,-76.5283175,0
511080,VBUICAPR,Via a la Buitrera Capricho Km 6,3.38253028,-76.57501833,0
511081,VBUIK7,Via a la Buitrera Km 7,3.382915,-76.57808167,0
511082,VBUIBAJA,Via a la Buitrera Colegio Las Lajas Baja,3.38157472,-76.56931889,0
511083,VBUIFATI,Via a la Buitrera Fatima,3.37679389,-76.56668,0
511084,VBUISPOR,Via a la Buitrera Sector El Portento,3.36848889,-76.56233861,0
511085,V_CASC10,Via Principal Cascajal,3.31792444,-76.51654361,0
511086,C18K1413,Cl 18 con Kr 141,3.32198417,-76.53514556,0
511087,C18K1414,Cl 18 con Kr 141,3.32192889,-76.53492556,0
511089,C42K83A,Cl 42 entre Kr 83B y 83A,3.38495833,-76.52016361,0
511090,C42K81A,Cl 42 entre Kr 81A y 81 Lote,3.38748028,-76.51997222,0
511093,C48K82,Cl 48 entre Kr 82 y 83Bis,3.38595806,-76.51632722,0
511094,C48K83C,Cl 48 entre Kr 83C y 83E,3.38304361,-76.516315,0
511095,C48K85,Cl 48 entre Kr 85 y 86,3.37987889,-76.51630639,0
511098,C42K85E,Cl 42 entre Kr 85E y 85D,3.38020361,-76.52028861,0
511099,C42K83E,Cl 42 entre Kr 84 y 83E,3.38245417,-76.52026611,0
511100,K99C45,Kr 99 entre Cl 45 y 42,3.36846833,-76.5203275,0
511102,C14K85B,Cl 14 entre Kr 85B y 85A,3.38159278,-76.53311028,0
511103,C14K84,Cl 14 entre Kr 84 y 83C,3.38394306,-76.53315917,0
511104,C14K832,Cl 14 entre Kr 83 y 84,3.38394417,-76.53335806,0
511105,C14K85A1,Cl 14 entre Kr 85A y 85B,3.38151222,-76.53329167,0
511106,K80C48,Kr 80 entre Cl 45 y 48,3.38841056,-76.51791222,0
511109,C16K75A,Cl 16 entre Kr 75A y 73,3.38941361,-76.52822,0
511110,HORMI2,Hormigero2,3.34123333,-76.52133167,0
511111,HORMI1,Hormiguero1,3.34338,-76.52366667,0
511112,VIA_PUER,Via_puerto_tejada,3.32170222,-76.49794972,0
511113,COL_FRAY,Cali_puerto-col-fray damian,3.31986833,-76.49527833,0
511114,CASCAJAL,Puerto_cascajal,3.31718333,-76.49196833,0
511115,V_HORMI3,Via principal_hormiguero3,3.31407167,-76.48815833,0
511116,V_HORMI4,Via_principal hormi4 089,3.31316667,-76.48418,0
511117,V_HORMI5,Via_hormi5_col asuncion,3.31227861,-76.48129889,0
511118,V_HORMI6,V_hormi C216,3.31257722,-76.47839,0
511119,V_HORMI7,V-hormi7 C122,3.31291917,-76.48192222,0
511120,V_HORMI8,V_hormi8 C087,3.31323833,-76.48432667,0
511121,V_HORMI9,V_hormi9 rosy,3.31402,-76.48819,0
511122,CAL_PUER,Via cali_puerto,3.31610167,-76.49057167,0
511123,V_CASCA2,via_cascajal2,3.31688889,-76.49263028,0
511124,V_CASCA3,Via_cascajal3 urb flamenco,3.31653361,-76.49850111,0
511125,V_CASCA4,Via_cascajal4 Centro educativo,3.31634278,-76.50331472,0
511126,V_CASCA5,Via_cascajal5,3.31642361,-76.50737833,0
511127,V_CASCA6,Via_cascajal6 equilar C099,3.31792722,-76.51170444,0
511128,V_CASCA7,Via_cascajal7 col-santa maria pance,3.31810639,-76.5139275,0
511129,V_CASCA8,Via_cascajal8 Conchita,3.3178375,-76.5186675,0
511130,V_CASCA9,Via_cascajal9 Presentacion,3.31753583,-76.5218275,0
511131,MARANON,Urb Maranon,3.33053333,-76.50854333,0
511132,C36K128,Cl 36 entre Kr 128 y 129,3.32934167,-76.5227,0
511134,C36K146,Cl 36 entre Kr 146 y 148,3.31418167,-76.52299833,0
511135,C36K170,Cl 36 entre Kr 170 y 168,3.29677333,-76.52234167,0
511136,C36K134,Cl 36 entre Kr 134 y 128,3.33075167,-76.52279333,0
511137,C25K118,Cl 25 entre Kr 122 y 118,3.348255,-76.52393333,0
511138,AV-MELEN,Av los Cerros Melendez,3.34454583,-76.54928528,0
511139,AV-MELE2,Av los Cerros con Cl 2 Acceso Vial,3.348335,-76.55718222,0
511140,ECOPAR11,Via La Voragine Ecoparque 1 entrada,3.34945139,-76.56272194,0
511141,ECOPAR21,Via La Voragine Ecoparque 2 entrada,3.34941667,-76.56544556,0
511142,ECOPAR31,Via La Voragine Ecoparque 3 entrada,3.34879722,-76.5699875,0
511143,ECOPAR41,Via La Voragine Ecoparque 4 entrada,3.34867167,-76.57243861,0
511144,VORAGI1,La Voragine Fin,3.3446875,-76.58889111,0
511145,VORAGI2,La Voragine Ini,3.34499194,-76.58878556,0
511146,ECOPAR42,Via La Voragine Ecoparque 4 entrada,3.34857306,-76.57235528,0
511147,ECOPAR32,Via La Voragine Ecoparque 3 entrada,3.34868333,-76.56993444,0
511148,ECOPAR22,Via La Voragine Ecoparque 2 entrada,3.34925361,-76.565275,0
511149,ECOPAR12,Via La Voragine Ecoparque 1 entrada,3.34933389,-76.56258167,0
511150,AV-MELE1,Av los Cerros con Cl 2 Acceso Vial,3.348085,-76.55664444,0
511151,K122C4,Kr 122 entre Cl 4 y 5,3.34204722,-76.54749583,0
511153,K109C50,Kr 109 con Cl 50 Reformatorio Valle del ,3.35834,-76.51448167,0
511154,K109C57,Kr 109 con Cl 57 Colegio Philadelphia,3.35805333,-76.51084,0
511155,K118COM1,Kr 118 Callejon Jagua Comfenalco Valle d,3.35919278,-76.50294111,0
511156,K118JUV1,Kr 118 Callejon Jagua Colegio Juvenilia,3.36174361,-76.49876194,0
511157,K118JAG1,Kr 118 Callejon Jagua Club Canasgordas,3.36366861,-76.49529222,0
511158,K118JUV2,Kr 118 Callejon Jagua Colegio Juvenilia,3.36204333,-76.49855778,0
511159,K118COM2,Kr 118 Callejon Jagua Comfenalco Valle d,3.35913889,-76.50338222,0
511160,K109C571,Kr 109 con Cl 57 PVL,3.35819639,-76.51119889,0
511161,K109C501,Kr 109 con Cl 50 Reformatorio Valle del ,3.35839417,-76.51399389,0
511162,K109C26,Kr 109 entre Cl 26 y 25,3.35903806,-76.52363944,0
511163,K95C4,Kr 95 entre Cl 4 y 3D,3.37418444,-76.54764139,0
511164,K95C3,Kr 95 entre Cl 3 y Kr 95A,3.37407083,-76.549485,0
511165,K94BC2B,Kr 94B entre Cl 2B y 2,3.37532667,-76.55144639,0
511166,K94CC2,Kr 94C entre Cl 2 y 1A Oeste,3.37415583,-76.55343667,0
511167,K95C1AO,Kr 95C con Cl 1A Oeste,3.37357472,-76.55514028,0
511168,K96C1O,Kr 96 entre Cl 1 Oe y 2 Oe,3.37329222,-76.555635,0
511169,C4OK94B,Cl 4 Oe entre Kr 94B y 94A,3.373355,-76.55761278,0
511170,C4OK94A,Cl 4 Oe entre Kr 94A y 94,3.37520806,-76.55923278,0
511171,C4OK94BI,Cl 4 Oe entre Kr 94 Bis y 94A,3.37503972,-76.55916694,0
511172,K96C3O,Kr 96 entre Cl 3 Oe y 1 Oe,3.37329028,-76.55603694,0
511173,K95C1AO1,Kr 95 entre Cl 1a Oe y 1A,3.37339111,-76.55476444,0
511174,K94CC1O,Kr 94C entre Cl 1 Oe y 1B,3.37429194,-76.55448889,0
511175,K94BC2,Kr 94B entre Cl 2 y 2B,3.37521194,-76.55191722,0
511176,C2BK95A,Cl 2B entre Kr 95A y 94D,3.37442028,-76.55034278,0
511177,K95C3C,Kr 95 entre Cl 3 y 3C,3.37406722,-76.54854556,0
511178,C16K100,Cl 16 entre Kr 100 y 102,3.36603222,-76.53065111,0
511179,C18K105,Cl 18 entre Kr 105 y 106,3.36332778,-76.53193083,0
511180,C18K1301,Cl 18 entre Kr 130 y 137,3.32642194,-76.53355056,0
511181,C18K1302,Cl 18 entre Kr 137 y 130,3.32639611,-76.53339444,0
511183,K102C12,Kr 102 entre Cl 12 y 11B,3.36818028,-76.53986944,0
511187,K100C11,Kr 100 entre Cl 11 y 12,3.37200806,-76.53917389,0
511192,C18K106,Cl 18 entre Kr 106 y 108,3.36064667,-76.53097833,0
511193,C18K114,Cl 18 entre Kr 106 y 114,3.35821167,-76.530555,0
511194,C18K114B,Cl 18 entre Kr 114B y 115,3.35242194,-76.53034583,0
511195,C18K122,Cl 18 entre Kr 115 y 122,3.34364833,-76.53091917,0
511196,C18K125,Cl 18 entre Kr 122 y 125,3.34128417,-76.53109389,0
511197,C18K125A,C18 entre K125 y 125A,3.33772167,-76.53166,0
511198,C18K126,Cl 18 entre Kr 126 y 127,3.33401333,-76.532485,0
511199,C18K127,Cl 18 entre Kr 127 y 129,3.330625,-76.53288,0
511201,C18K137,Cl 18 entre Kr 137 y 141,3.32392833,-76.53446222,0
511202,C18K141,Cl 18 entre Kr 141 y 142,3.31976611,-76.53590806,0
511203,C18K146,Cl 18 entre Kr 146 y 152,3.31494167,-76.53759278,0
511204,C18K170,Cl 18 con Kr 170,3.30738333,-76.54006694,0
511206,C18K1682,Cl 18 con Kr 168 2,3.30914944,-76.53947361,0
511207,C18K150,Cl 18 entre Kr 150 y 146,3.3151475,-76.53735139,0
511208,C18K142,Cl 8 entre Kr 142 y 141,3.31971056,-76.53568472,0
511209,C18K1412,Cl 18 entre Kr 141 y 137,3.32376806,-76.53425917,0
511210,C18K1291,Cl 18 entre Kr 129 y 127C,3.329055,-76.53285667,0
511212,C18K127C,Cl 18 entre Kr 127C y 127,3.332725,-76.53260833,0
511213,C18K1272,Cl 18 entre Cl 127 y 125,3.33764833,-76.53150167,0
511214,K125C20,K 125 con CL 20,3.33845389,-76.52950167,0
511215,K125C23A,K 125 con CL 23A,3.33857972,-76.5263275,0
511221,K168C36,Kr 168 con Cl 36,3.29737333,-76.52294,0
511222,C25K98B,Cl 25 entre Kr 98B y 98,3.37007139,-76.52471278,0
511223,C42K99,Cl 42 entre Kr 99 y 98A,3.36910722,-76.52059639,0
511224,C45K103,Cl 45 entre Kr 103 y 102,3.36556361,-76.51891056,0
511225,C45K100,Cl 45 entre Kr 100 y 99,3.3671525,-76.51889833,0
511226,K99C30,Kr 99 con Cl 30,3.36797083,-76.52227389,0
511227,K94C45,Kr 94 entre Cl 45 y 48,3.37529583,-76.51705306,0
511228,C48K92,Cl 48 entre Kr 92 y 90,3.37670889,-76.51624333,0
511230,C48K90,Cl 48 entre Kr 90 y 92,3.37698083,-76.51663833,0
511232,C25K1251,Cl 25 entre Kr 125 y 127,3.33842,-76.52465167,0
511234,C13K100U,Cl 13 con Kr 100,3.37533139,-76.53722639,0
511235,K80C5,Kr 80 entre Cl 5 y 6A,3.38628472,-76.54130028,0
511237,C16K93,Cl 16 entre Kr 93 y 92,3.37597472,-76.52905417,0
511238,K85CC16,Kr 85C entre Cl 16 y 15,3.38062056,-76.52982583,0
511239,K86C14A,Kr 86 entre Cl 14A y 14,3.38007528,-76.53224361,0
511241,K122C24,Kr 122 entre Cl 24 y 22A,3.34338167,-76.52717528,0
511242,K86C17,Kr 86 entre Cl 17 y 18,3.379315,-76.52732722,0
511243,K80C13A1,Kr 80 entre Cl 13A1 y 13B,3.38699806,-76.53611667,0
511248,AUT-JAM1,Autopista Cali - Jamundi - Sede Club Ame,3.31853833,-76.522765,0
511249,C18K114A,Cl 18 entre Kr 114B y 114A,3.35314278,-76.53015917,0
511250,C18K111,Cl 18 entre Kr 111 y 109,3.35799611,-76.53042583,0
511251,C25K1051,Cl 25 entre Kr 104 y 105,3.35886167,-76.52402333,0
511252,C25K1052,Cl 25 entre Kr 105 y 104,3.35934333,-76.52398167,0
511254,K127C36,Kr 127 entre Cl 36 y 25,3.33503833,-76.52475333,0
511255,K127C21A,Kr 127 entre Cl 21A y 21,3.33518167,-76.52858167,0
511256,C25K122,Cl 25 entre Kr 121 y 122,3.34424667,-76.524385,0
511257,C25K1222,Cl 25 entre Kr 122 y 121,3.34486167,-76.52417667,0
511260,C18UJAV1,Cl 18 entre Kr 115 y 122,3.34796111,-76.53060333,0
511261,C18UJAV2,Cl 18 entre Kr 121 y 118,3.3480875,-76.53047806,0
511264,C18K108,Cl 18 entre Kr 108 y 106A,3.36102333,-76.530905,0
511265,C16K103,Cl 16 entre Kr 105 y 103,3.36469,-76.53140667,0
511267,C48K86,Cl 48 entre Kr 86 y 85,3.38004333,-76.51622,0
511268,C48K83E,Cl 48 entre Kr 83E y 84,3.382635,-76.51621639,0
511269,C48K83A,Cl 48 entre Kr 83A y 82A,3.38543722,-76.51621,0
511270,C48K80,Cl 48 entre Kr 80 y 81,3.38753139,-76.516205,0
511271,K80C45,Kr 80 entre Cl 45 y 46,3.3885225,-76.51817444,0
511272,C42K81,Cl 42 entre Kr 80 y 81,3.38768556,-76.52019444,0
511273,C42K81Y4,Cl 42 entre Kr 81 y 84,3.38491611,-76.52038167,0
511274,K83CC32,Kr 83C entre Cl 36 y 34,3.38386833,-76.52188333,0
511275,C25K83C1,Cl 25 entre Kr 83 y 83C,3.38446944,-76.52450806,0
511276,C25K83B2,Cl 25 entre Kr 83A y 83B,3.38460778,-76.52518861,0
511277,C25K90,Cl 25 entre Kr 90 y 86,3.37872,-76.52446,0
511278,C25K862,Cl 25 entre Kr 85C y 86,3.37957861,-76.52544361,0
511279,C25K89,Cl 25 entre Kr 89 y 94,3.37660833,-76.52546889,0
511281,C25K981,Cl 25 entre Kr 98 y 100,3.37046528,-76.525595,0
511282,K98C16,Kr 98 entre Cl 16 y 18,3.37089861,-76.52770583,0
511283,C25K96,Cl 25 entre Kr 96 y 94,3.37451639,-76.52456611,0
511284,C25K952,Cl 25 entre Kr 95 y 98,3.37329167,-76.52554861,0
511285,C5K941,Cl 5 con Kr 94,3.37708,-76.54295,0
511286,K94C4C,Kr 94 entre Cl 4D y 4C,3.375635,-76.54509833,0
511287,C4K93,Cl 4 entre Kr 92 y 94,3.37586833,-76.54714167,0
511288,K92C2C,Kr 92 entre Cl 3A y 2C,3.37728333,-76.548185,0
511292,K94C4A,Kr 94 entre Cl 4 y 4A,3.37486278,-76.54656917,0
511293,C2K931,Cl 2 entre Kr 93 y 94,3.37685111,-76.55239528,0
511295,C4K922,Cl 4 entre Kr 92 y 89,3.37762167,-76.54455,0
511298,C25K83C,Cl 25 entre Kr 83C y 85,3.38241667,-76.524365,0
511299,C4DK94,Cl 4D entre Kr 94 y 93,3.37614806,-76.544605,0
511301,C16K90UR,Cl 16 entre Kr 90 y 89 Urb. San Joaquin,3.37771333,-76.52893833,0
511305,K86C14,Kr 86 entre Cl 14 y 16 Univalle,3.37969583,-76.5324025,0
511309,K56C13G,Kr 56 entre Cl 13G y 13F,3.4042,-76.53240667,0
511310,K56C13E,Kr 56 entre Cl 13E y 14,3.40400667,-76.53241833,0
511311,K56C13F,Kr 56 entre Cl 13F y 13,3.404925,-76.534625,0
511312,K56C13C,Kr 56 entre Cl 13 y 13C,3.40478139,-76.53474361,0
511313,K56C13,Kr 56 entre Cl 13 y 12A,3.40557333,-76.53665444,0
511315,K56C11A,Kr 56 entre Cl 11A y 10A,3.40618556,-76.53855111,0
511316,K56C11,Kr 56 entre Cl 10A y 11A,3.40609667,-76.53882667,0
511317,K98C30,Kr 98 entre Cl 30 y 42,3.37073194,-76.52156028,0
511318,C42K96,Cl 42 entre Kr 96 y 98,3.37145639,-76.52093917,0
511319,C42K95,Cl 42 entre Kr 95 y 94A,3.37181306,-76.52029639,0
511320,C42K94A,Cl 42 entre Kr 94A y 95,3.37411861,-76.52086833,0
511321,C42K952,Cl 42 entre Kr 95 y 94A 2,3.374195,-76.52025722,0
511322,C42K91,Cl 42 entre Kr 91 y 92,3.37673667,-76.52079,0
511323,C42K92,Cl 42 entre Kr 92 y 91,3.37677083,-76.52017528,0
511324,C42K85C,Cl 42 entre Kr 85C y 85E,3.38021389,-76.52048972,0
511329,C42K98,Cl 42 entre Kr 98 y 98B,3.36969944,-76.52099694,0
511334,C25K127,Cl 25 entre Kr 127 y 128,3.33339667,-76.52357,0
511335,LAB ESTE,Aut Cali Jamun-Lab estelar,3.32290667,-76.52246333,0
511337,C METROP,Cementerio Metropolitano,3.31187,-76.522785,0
511338,K168CREC,Kr 168 Centro Recreativo Comfandi Pance,3.30175333,-76.53140333,0
511339,K180 HCA,K180 Hacienda Castillo,3.29077,-76.52377833,0
511341,UANARINO,Univ Antonio Narino,3.31355167,-76.52279333,0
511343,L ESTELA,Lab Estelar - Jamun Cali,3.32335667,-76.52227,0
511344,PTROBRAS,E Servicio Petrobras,3.33340333,-76.52347333,0
511346,C18K1121,Calle 18 entre Calle 112 y 111,3.35568972,-76.53031306,0
511347,C18K1142,Cl 18 entre Kr 114 y 114B,3.35588972,-76.53044472,0
511348,C13K83,Cl 13 entre Kr 83 y 81,3.38330639,-76.5381675,0
511349,C16K98,Cl 16 entre Kr 98 y 94,3.37200111,-76.52933333,0
511350,C4OK94,Cl 4 Oe con Kr 94,3.37645389,-76.55971944,0
511351,C4OK91,Cl 4 Oe con Kr 91,3.37794556,-76.56090417,0
511352,C4OK89,Cl 4 Oe con Kr 89,3.37975861,-76.56129389,0
511353,C4OK90,Cl 4 Oe con Kr 90,3.37970444,-76.56139583,0
511354,C4OK92,Cl 4 Oe con Kr 92,3.37787139,-76.56078944,0
511356,K109K118,Kr 109 con Kr 118,3.35743944,-76.50697861,0
511357,K118K109,Kr 118 con Kr 119,3.35753306,-76.5068175,0
511359,C18K1701,Cl 18 con Kr 170 1,3.30745806,-76.54022111,0
511360,C18K1271,Cl 18 entre Kr 129 y 127C 1,3.33073028,-76.5327775,0
511361,C18K118,Cl 18 entre Kr 118 y 120,3.3478775,-76.530725,0
511362,K93C4,Kr 93 entre Cl 4 y 3A,3.37544722,-76.54761444,0
511363,K93C3A,Kr 93 entre Cl 3A y 2C,3.37552306,-76.54980556,0
511364,K94AC2A,Kr 94A entre Cl 2A y 2,3.3758525,-76.55225028,0
511365,C2K94,Cl 2 entre Kr 94 y 93,3.37721472,-76.55226389,0
511366,K93C1,Kr 93 entre Cl 1Bis y 1A,3.37771111,-76.55326972,0
511371,C2BOK93,Cl 2B Oe entre Kr 93 y 93A,3.37826722,-76.55674778,0
511372,K93C1A,Kr 93 con Cl 1A,3.37766833,-76.55367944,0
511377,K93C3B,Kr 93 entre Cl 3B y 3C,3.37539556,-76.5478225,0
511378,CA_CHAPA,Callejon Chaparral,3.3176175,-76.52028,0
511379,VBUITRE1,Via a la Buitrera 1,3.37092278,-76.56377556,0
511380,VBUITRE2,Via a la Buitrera 2,3.37078389,-76.56363556,0
511381,VORA-1,Via La Voragine Hacienda La Rivera EMCAL,3.34901194,-76.56002639,0
511382,VORA-2,Via La Voragine Hacienda La Rivera EMCAL,3.34893222,-76.56027083,0
511383,V_HORM10,Via Principal del Hormiguero,3.31229,-76.47959278,0
511384,V_HORM11,Via Principal del Hormiguero,3.31224639,-76.48054833,0
511385,C42K114A,Cl 42 entre Kr 114A y 112,3.35449694,-76.52021222,0
511386,C42K112,Cl 42 entre Kr 112 y 109,3.35841278,-76.52028583,0
511387,C42K109,Cl 42 entre Kr 112 y 109,3.35632194,-76.52025167,0
511388,C5K85Y86,Cl 5 entre Kr 85 y 86,3.38027194,-76.5438225,0
511389,C2CK94,Cl 2C entre Kr 94 y 94A,3.37568111,-76.55047139,0
511390,K94AC3A,Kr 94A entre Cl 3A y 3B,3.37541361,-76.54836111,0
511391,K94C4E,Kr 94 con Cl 4E,3.37612667,-76.54372556,0
511392,K93C1B,Kr 93 con Cl 1B Oe,3.37788778,-76.55476833,0
511393,K93AC1B,Kr 93A entre Cl 1B y 2B Oe,3.37782167,-76.55599111,0
511394,K93C2B1,Kr 93 con Cl 2B1 Oe,3.37857333,-76.55704889,0
511395,C2OK2B,Cl 2 Oe entre K2B2 y 2B,3.38026583,-76.5582225,0
511396,ALUISA,Altos de la Luisa,3.38110778,-76.55730194,0
511397,C2OK2B2,Cl 2 Oe entre Kr 2B y 2B2,3.38036583,-76.55816139,0
511399,K93C2B2,Kr 93 con Cl 2B2 Oe,3.37772722,-76.55528306,0
511400,K94C2,Kr 94 entre Cl 2 y 2A,3.37572639,-76.55197278,0
513255,C70A2BIS,Cl 70 entre Av 2Bis y 3N,3.49023333,-76.508785,0
513257,C70A3BN2,Cl 70 entre Av 3N y 3BN,3.491045,-76.511445,0
513258,C70A3BN1,Cl 70 entre Av 3BN y 3N,3.49075333,-76.51156333,0
513259,C70A3DN,Cl 70 entre Av 3CN y 4N,3.49261333,-76.51641833,0
513260,C70A4N2,Cl 70 entre Av 4N y 3CN,3.49250333,-76.51663667,0
513261,C70A4N1,Cl 70 entre Av 4N y 6N,3.493565,-76.51945667,0
513262,C70A6N-2,Cl 70 entre Av 6N y 4N 2,3.49338333,-76.51948833,0
513263,A6NA70N,Av 6N entre Cl 67 y Av 70N,3.49251,-76.52368833,0
513264,A6NC652,Av 6N entre Cl 52 y 67,3.49241333,-76.52346667,0
513265,A6NC501,Av 6N entre Cl 49 y 48,3.48751167,-76.52586278,0
513266,A6NC502,Av 6N entre Cl 49 y 50N,3.48664833,-76.52552667,0
513267,A6NC471,Av 6N entre Cl 47 y 44B,3.48375167,-76.52589,0
513268,A6NC472,Av 6N entre Cl 45 y 47N,3.48366,-76.52558667,0
513269,A6NC411,Av 6N entre Cl 41 y 40,3.47989833,-76.52544667,0
513270,A6NC40-2,Av 6N entre Cl 40 Y 42,3.47971833,-76.52518667,0
513271,A6ANC29,Av 6AN entre Cl 35 y 29,3.47188,-76.52865667,0
513272,A6ANC25,Av 6AN entre Cl 25 y 24A,3.46732,-76.53100833,0
513273,A6ANC22,Av 6AN entre Cl 22A y 22,3.46420167,-76.53102667,0
513279,A6NC23,Av 6N entre Cl 23 y 24N,3.465365,-76.53024167,0
513280,A6NC252,Av 6N entre Cl 25 y 26N,3.46762,-76.52938167,0
513282,K1FNC73,Kr 1FN con Cl 77 y 73,3.49359,-76.4895575,0
513289,C52K4N,Cl 52 entre Kr 4N y 5N,3.47773694,-76.50546806,0
513290,C70K4C,Cl 70 entre Kr 3 y 4C,3.46979111,-76.48628,0
513291,K5C44B,Kr 5 entre Cl 44 y 44B,3.46084556,-76.506795,0
513292,K5C45C,Kr 5 entre Cl 45C y 45,3.4614525,-76.50512889,0
513293,K2ANC81,Kr 2AN entre Cl 73 y 81,3.49522611,-76.48837639,0
513294,C84K2AN,Cl 84 entre Kr 2NBis y 2AN,3.49674444,-76.48786417,0
513295,K3NC83B,Kr 3N entre Cl 83B y 83A,3.49704778,-76.48962722,0
513296,K3NC76,Kr 3N entre Cl 76 y 75,3.49480722,-76.49079194,0
513297,K3NC72F,Kr 3N entre Cl 72F y 72E,3.49199806,-76.49220556,0
513298,K3NC72A,Kr 3N entre Cl 72A y 72,3.48985667,-76.493655,0
513299,C71IK3B,Cl 71I entre Kr 3B y 3EN,3.48966417,-76.49579778,0
513300,C70K3D,Cl 70 entre Kr 3D y 3C,3.4694625,-76.48532528,0
513301,C62K1A9,Cl 62 entre Kr 1A9 y 1A10,3.47851611,-76.49575,0
513307,K1A6C71,Kr 1A6 entre 71 y 70B,3.48379333,-76.48828333,0
513308,C66K1A6,Cl 66 entre Kr 1A6 y 1A10,3.48071361,-76.49278833,0
513309,C70K1G,Cl 70 entre Kr 1G,3.4746675,-76.48775333,0
513310,C62K1HB,Cl 62 entre Kr 1HBis y 1H,3.47265083,-76.49266444,0
513311,C66K1A10,Cl 66 entre Kr 1A10 y 1A6,3.48084167,-76.49282806,0
513312,K1A6C62A,Kr 1A6 entre Cl 62A y 62,3.48029528,-76.49470472,0
514001,C16K1001,Cl 16 entre Kr 100 y 98,3.37011111,-76.5294375,0
514002,C70K11C,Cl 70 entre Kr 11C y 11B,3.44737028,-76.48864917,0
514003,C70K11E,Cl 70 entre Kr 11A y 11E,3.44680333,-76.490065,0
514009,C70K7LB,Cl 70 entre Kr 7LBis y 7L,3.45752444,-76.48333028,0
514010,C70K7L,Cl 70 entre Kr 7L y 7LBis,3.45766667,-76.48417167,0
514011,C70K7G,Cl 70 entre Kr 7G y 7EBis,3.46048361,-76.48267917,0
514012,C70K7EB,Cl 70 entre Kr 7EBis y 7J,3.46060833,-76.48346,0
514013,C70K7C,Cl 70 entre Kr 7C y 7BBis,3.46375333,-76.48342667,0
514014,C70K7BB,Cl 70 entre Kr 7BBis y 7C,3.4634,-76.484195,0
514017,K15C73,Kr 15 entre Cl 73 y 74,3.44627806,-76.4829525,0
514019,C44K12,Cl 44 entre Kr 12 y 11D,3.44909972,-76.50412833,0
514020,K25C73A,Kr 25 entre Cl 73A y 74,3.44084333,-76.47981167,0
514021,K25C77,Kr 25 entre Cl 77 y 78,3.43894667,-76.47706667,0
514022,K25C79,Kr 25 entre Cl 79 y 80,3.43762833,-76.475065,0
514023,C80K25,Cl 80 entre Kr 25 y 23,3.43776,-76.47348667,0
514024,K23C81B,Kr 23 entre Cl 81B y 82,3.437495,-76.471735,0
514025,K23C83B,Kr 23 entre Cl 83B y 84,3.436665,-76.469895,0
514026,K23C85A,Kr 23 entre Cl 85A y 85,3.43583333,-76.46804833,0
514027,K23C96,Kr 23 con Cl 96,3.43507639,-76.46666972,0
514028,K23C102B,Kr 23 entre Cl 102 y 102C,3.43165444,-76.46482139,0
514029,K23C118,Kr 23 entre Cl 118 y 119,3.42867667,-76.46365667,0
514030,C123K23,Cl 123 entre Kr 23 y 23A,3.42564333,-76.46346,0
514031,C123K26A,Cl 123 entre Kr 26ABis y 26CBis,3.42222333,-76.46405,0
514032,C123K26H,Cl 123 entre Kr 26H2 y 26H3,3.41910167,-76.46568167,0
514033,C123K26J,Cl 123 entre Kr 26J1 y 26J2,3.41681028,-76.46687389,0
514034,C123K26R,Cl 123 entre Kr 26R1 y 26T,3.41420667,-76.46830333,0
514035,C123K27C,Cl 123 entre Kr 27C y 27D,3.41193944,-76.46967167,0
514036,C123K28B,Cl 123 entre Kr 28B y 28B1,3.40947333,-76.469975,0
514039,C121K27F,Cl 121 entre Kr 27F y 27D1,3.41253333,-76.47155167,0
514041,C123K26M,Cl 123 entre Kr 26M3 y 26M1,3.41507333,-76.467785,0
514042,C123K262,Cl 123 entre Kr 26J2 y 26J,3.417125,-76.46657167,0
514044,C123K26B,Cl 123 entre Kr 26B y 26ABis,3.422895,-76.46366833,0
514045,K23C120Q,Kr 23 entre Cl 120Q y 120R,3.42569333,-76.46335667,0
514046,K23C120C,Kr 23 entre Cl 120C y 120B,3.42784833,-76.46325833,0
514047,K23C114,Kr 23 entre Cl 114 y 112,3.42948694,-76.46386806,0
514048,K23C1022,Kr 23 entre Cl 102B y 102,3.432095,-76.46486667,0
514049,K23C98A,Kr 23 entre Cl 98A y 98,3.43483,-76.46597667,0
514050,K23C87,Kr 23 entre Cl 87 y 86,3.43593333,-76.46822,0
514051,K23C84,Kr 23 entre Cl 84 y 83B,3.43662,-76.46969,0
514052,K23C83,Kr 23 entre Cl 83 y 81B,3.43765167,-76.47178667,0
514053,C80K23,Cl 80 entre Kr 23 y 25,3.43790333,-76.47350833,0
514054,K25C80,Kr 25 entre Cl 80 y 79,3.43782861,-76.47505694,0
514055,K25C771,Kr 25 entre Cl 77 y 78,3.43913,-76.47711667,0
514056,K25C74,Kr 25 entre Cl 74 y 75,3.44060333,-76.47908833,0
514058,K15C74,Kr 15 entre Cl 74 y 73,3.44645833,-76.48322333,0
514065,D26FC73,Dg 26F1 entre Tr 73A y Cl 73,3.43607722,-76.48315583,0
514067,T103C56B,Tr 103 entre Cl 74 y Kr 26B2,3.43800583,-76.48068944,0
514068,T103C76,Tr 103 entre Cl 76 y 77,3.43579639,-76.47991083,0
514069,T103C79,Tr 103 entre Cl 79 y 79A,3.43242333,-76.47878889,0
514070,T103D26I,Tr 103 entre Dg 26I y 26I1,3.42898167,-76.47753167,0
514071,T103D26P,Tr 103 entre Dg 26P3 y 26P4,3.42476667,-76.47764667,0
514072,T103D261,Tr 103 entre Dg 26P8 y 26P9,3.42285083,-76.47796694,0
514073,T103D263,Tr 103 entre Dg 26P14 y 26P15,3.42066556,-76.47836472,0
514074,C102K27C,Tr 103 entre Kr 27C y 27D,3.41674778,-76.47907389,0
514080,C73K8,Cl 73 con Kr 8,3.45140333,-76.48273139,0
514081,K27C76,Kr 27 entre Cl 76 y 77,3.42315917,-76.48413889,0
514082,C73K7R,Cl 73 entre Kr 7RBis y 7S,3.45412167,-76.48216167,0
514083,K27C84,Kr 27 entre Cl 84 y 85,3.42116944,-76.48205722,0
514084,K27C86,Kr 27 entre Cl 86 y 91,3.41987389,-76.48067972,0
514085,T103D262,Tr 103 entre Dg 26P17 y 26P16,3.42000778,-76.47831361,0
514086,T103D264,Tr 103 entre Dg 26P9 y 26P10,3.42287833,-76.4777675,0
514087,T103C94,Tr 103 entre Cl 95 y 92,3.426485,-76.4770775,0
514088,T103C84,Tr 103 entre Cl 84 y 80F,3.42956694,-76.47750333,0
514089,T103C80A,Tr 103 entre Cl 80A y 80,3.43187833,-76.47835083,0
514090,T103C78B,Tr 103 entre Cl 79 y 78,3.43305861,-76.47873083,0
514091,T103C772,Tr 103 entre Cl 77 y 76,3.43586028,-76.47974639,0
514092,T103C74,Tr 103 entre Cl 75 y 74,3.43837639,-76.48063806,0
514095,C73K7M,Cl 73 entre Kr 7M y 7LBis,3.45633,-76.48163667,0
514096,C73K7JB,Cl 73 entre Kr 7JBis y 7J,3.458325,-76.48120833,0
514097,C73K7B,Cl 73 entre Kr 7B y 7BBis,3.46509639,-76.47997972,0
514098,C73K7G,Cl 73 entre Kr 7G y 7FBis,3.460535,-76.48060667,0
514099,C73K7D,Cl 73 entre Kr 7D y 7C,3.46311861,-76.48004528,0
514110,K7CC70,Kr 7C entre Cl 70 y 72A,3.46336,-76.48293167,0
514112,K7CC72A,Kr 7C entre Cl 72A y 73,3.46414833,-76.480605,0
514113,C73K7C,Cl 73 entre Kr 7C y 7ABis,3.46561667,-76.47948333,0
514114,C34K7,Cl 34 entre Kr 7 y 8,3.45514833,-76.51222333,0
514115,K8C34,Kr 8 entre Cl 34 y 26,3.45367917,-76.51542306,0
514116,K8C27,Kr 8 entre Cl 27 y 26,3.45332861,-76.51712278,0
514119,K8C391,Kr 8 entre Cl 44 y 36,3.45373667,-76.50722,0
514120,K8C392,Kr 8 entre Cl 39 y 41,3.45346667,-76.50712167,0
514121,K8C44,Kr 8 con Cl 44,3.45318167,-76.50331306,0
514125,K8C51,Kr 8 con Cl 51,3.45283722,-76.49959222,0
511401,C2CK94A,Cl 2C entre Kr 94A y 95,3.37542694,-76.55043389,0
511402,C42K100A,Cl 42 con Kr 100A,3.36624556,-76.52057972,0
511403,K104C42,Kr 104 entre Cl 42 y 45,3.36460444,-76.51994528,0
511406,C50K102,Cl 50 entre Kr 102 y 100,3.36622694,-76.51417833,0
511407,K99C50,Kr 99 entre Cl 50 y 48,3.36842778,-76.5147875,0
511408,K99C451,Kr 99 con Cl 45,3.36843722,-76.51869528,0
511409,K109C421,Kr 109 con Cl 42,3.358595,-76.51839806,0
511412,K109C423,Kr 109 con Cl 42,3.35865972,-76.51828194,0
511413,C42K1121,Cl 42 entre Kr 109 y 112,3.35634361,-76.52042722,0
511414,C42K1122,Cl 42 entre Kr 112 y 114A,3.35449944,-76.52042694,0
511415,K114AC42,Kr 114A entre Cl 42 y 25,3.35438444,-76.52303667,0
511416,C48K94,Cl 48 entre Cr 94 y 95,3.37484444,-76.51665417,0
511417,C48K96,Cl 48 entre Cr 96 y 97,3.37233083,-76.5166375,0
511418,K98C45,Cr 98 entre Cl 45 y 42,3.37086722,-76.51906972,0
511419,K86C35,Cr 86 entre Cl 35 y 34,3.37925917,-76.52111917,0
511420,K85CC33,Cr 85C entre Cl 33 y 28,3.38009944,-76.52323889,0
511421,K85CC18,Cr 85C entre Cl 18 y 17,3.38041056,-76.52732917,0
511422,C16K85B,Cl 16 entre Cr 85B y 85A,3.38133056,-76.5287425,0
511423,C16K83C,Cl 16 entre Cr 83C y 83B,3.38422944,-76.52856056,0
511424,C16K73,Cl 16 entre Cr 73 y 76,3.38964667,-76.52843889,0
511425,C16K83,Cl 16 entre Cr 83 y 83A,3.38535306,-76.52867278,0
511426,C16K85,Cl 16 entre Cr 85 y 85A,3.381945,-76.52890389,0
511427,K86C25,Cr 86 entre Cl 25 y 28,3.37912417,-76.52368139,0
511428,K86C34,Cr 86 entre Cl 34 y 42,3.3790325,-76.52174306,0
511429,R-SUR 1,Resesrva Sur 1,3.35971472,-76.51350694,0
511430,R-SUR 2,Reserva Sur 2,3.36082361,-76.51291083,0
511431,R-SUR 3,Reserva Sur 3,3.36024917,-76.51172444,0
511432,C4K95,C4 entre K95 y 96,3.37369944,-76.54725222,0
511433,C4K96,C4 entre K96 y 98,3.37200722,-76.54716917,0
511434,K98AC2D,K 98A con Cl 2D,3.37160222,-76.55019444,0
511435,K98AC2A,K98A con CL2A Altos del Madrigal,3.37178694,-76.55208806,0
511436,K98C2,K98 entre CL 2 y 2A,3.37227028,-76.55194861,0
511437,K98C2D,K98 entre CL 2D y 3,3.37207028,-76.54974611,0
511438,SANTAEL1,Altos de Santa Elena Parada 1,3.368775,-76.55593944,0
511439,SANTAEL2,Altos de Santa Elena Parada 2,3.37024694,-76.55704889,0
511440,SANTAEL3,Altos de Santa Elena Parada 3,3.37201139,-76.55582528,0
511441,SANTAEL4,Altos de Santa Elena Parada 4,3.37206667,-76.5546525,0
511442,SANTAEL5,Altos de Santa Elena Parada 5,3.37193389,-76.55613833,0
511443,SANTAEL6,Altos de Santa Elena Parada 6,3.37047528,-76.55539056,0
511444,SANTAEL7,Altos de Santa Elena Parada 7,3.37054361,-76.55558972,0
511445,SANTAEL8,Altos de Santa Elena Parada 8,3.37010889,-76.55704278,0
511446,SANTAEL9,Altos de Santa Elena Parada 9,3.36863778,-76.55580889,0
511447,K98C3C,K98 entre CL 3C y 4,3.37175444,-76.54733861,0
511448,C4K96Y95,CL4 entre  K96 y 95,3.37379889,-76.5471575,0
511456,K99C48,Kr99 con Cl 48,3.36814667,-76.51731028,0
511457,K99C482,Kr 99 con Cl 50,3.36836889,-76.51464194,0
511458,C50K100,Cl 50 entre Kr 100 y 102,3.36617167,-76.51423167,0
511459,C25K102,Cl 25 entre Kr 102 y 101,3.36257806,-76.52426583,0
512001,A1NC10,Av 1N entre Cl 12 y 10,3.45501167,-76.53427833,0
512002,C18ICESI,Cl 18 entre Kr 125 y 122,3.34078139,-76.53101833,0
512003,C70A3CN2,Cl 70 entre Av 3BN y 3CN,3.49204333,-76.51450833,0
512004,C70A3CN1,Cl 70 entre Av 3CN y 3BN,3.491935,-76.514835,0
512005,A6ANC35,Av 6AN entre Cl 35 y 29,3.473025,-76.52785333,0
512006,A6NC34,Av 6N entre Cl 34 y 35,3.47238611,-76.52657472,0
512007,A6ANC27,Av 6AN entre Cl 27 y 26,3.46949833,-76.53019667,0
512008,A6NC21,Av 6N entre Cl 21 y 22,3.46353,-76.53016,0
512015,C44A3DN,Cl 44 entre Av 3DN y 3EN,3.47950667,-76.51929333,0
512016,C44A3EN,Cl 44 entre Av 3EN y 3DN,3.47935861,-76.51953278,0
512017,C70A4N-2,Cl 70 entre Av 4N y 6N 2,3.494145,-76.52129,0
512018,C70A6N,Cl 70 entre Av 6N y 4N,3.49403333,-76.52154,0
512019,C70A2N2,C70 Con Av 2N,3.48846,-76.50377833,0
512020,A3NC23D,Av 3N con Cl 23D,3.46625167,-76.52370333,0
512021,A3NC32A,Av 3N entre Cl 32A y 33,3.47027167,-76.52202833,0
512022,A3NC31,Av 3N entre Cl 31 y 30,3.47060167,-76.52208667,0
512023,A3NC24,Av 3N entre Cl 24 y 23D,3.46708333,-76.523915,0
512024,C21A4N,Cl 21 entre Av 4N y 3N,3.46100083,-76.52774083,0
512029,C75CNA2A,Cl 75CN entre Av 2 ABis y 2B,3.49515,-76.50175833,0
512032,A2AN72BN,Av 2AN entre 72BN y 72AN,3.491935,-76.50449972,0
512033,A2ANC71N,Av 2AN entre Cl 71N y 70N,3.49000833,-76.50638333,0
512034,A3NC59,Av 3N entre Cl 59 y 61AN,3.48853444,-76.51056694,0
512035,A2NC57AN,Av 2N entre Cl 57AN y 57N,3.48378361,-76.5058175,0
512037,A6BISC35,Av 6BIS entre Cl 35N y 36N,3.47305806,-76.5273525,0
512038,C44A3HN,Cl 44 entre Av 3HN y 4N,3.48061333,-76.52156333,0
512039,C44A4BN,Cl 44 entre Av 4BN y 6N,3.481225,-76.52343333,0
512040,A6NC45,Av 6N entre Cl 45 y 47,3.48406694,-76.525635,0
512041,A6NC48,Av 6N entre Cl 48 y 49,3.48729028,-76.52561556,0
512042,C52A5A,Cl 52N entre Av 5A y 5,3.48853556,-76.52312111,0
512043,C52A4A,Cl 52N entre Av 4A y 4,3.48770556,-76.52084694,0
512044,C52A3H,Cl 52 entre Av 3H y 3F,3.48576889,-76.51723278,0
512046,C25A2DN,Cl 25 entre Av 2D y 2C,3.463755,-76.52240667,0
512050,C21NA3N,Cl 21N entre Av 3N y 4N,3.46124889,-76.52786194,0
512054,C34A3CN,Cl 34 entre Av 3CN y 4N,3.47173917,-76.52350972,0
512055,A2BNC34,Av 2BN entre Cl 34 y 35,3.47226694,-76.52601611,0
512056,A2BNC35,Av 2BN entre Cl 35 y 34,3.47228583,-76.52618194,0
512057,A2BNC25,Av 2BN entre Cl 25 y 24,3.46798972,-76.52474694,0
512061,C73A3N,Cl 73 entre Av 3N y 2CN,3.49351,-76.50841,0
512062,C73A2BN,Cl 73 entre Av 2B3 y 2B2N,3.49248194,-76.5052175,0
512063,A2BBSN,Av 2BSN entre Cl 73Bis y 74,3.49322028,-76.50352889,0
512064,C74NA2BN,Cl 74N entre Av 2BN y 2CN,3.49465667,-76.50392333,0
512069,C18A6N,Cl 18 entre Av 5AN y 6N,3.46088667,-76.53081667,0
512070,C18NA3N,Cl 18N entre Av 3N y 4N,3.45908,-76.529735,0
512072,A6NC16,Av 6N entre Cl 16 y 18,3.460475,-76.53129,0
512078,C70A2BS,Cl 70 entre Av 2BS y 2N,3.48929333,-76.50621333,0
512081,A3NC52,Av. 3N entre Cl 52 y 55AN,3.48449944,-76.51309333,0
512085,A2CNC60,Av. 2CN entre Cl 60 y 59A,3.4855475,-76.50712333,0
512086,A2DNC57D,Av. 2DN entre Cl 57D y 57A,3.48468722,-76.50815639,0
512087,A2EC55B,Av. 2E netre Cl 55B y 55A,3.48405167,-76.50901556,0
514126,K8C492,Kr 8 entre Cl 49 y 50,3.45265833,-76.50041333,0
514128,K8C522,Kr 8 entre Cl 52 y 53,3.45248111,-76.49777944,0
514129,K8C561,Kr 8 con Cl 56,3.45260833,-76.49561167,0
514130,K8C562,Kr 8 entre Cl 54 y 56,3.45238667,-76.495865,0
514131,K8C59,Kr 8 con Cl 59,3.45278833,-76.49252333,0
514132,K8C582,Kr 8 entre Cl 58 y 59,3.45253167,-76.49316667,0
514133,K8C62,Kr 8 entre Cl 62 y 61,3.45272917,-76.489745,0
514134,K8C592,Kr 8 entre Cl 59 y 70,3.45250833,-76.49023167,0
514137,C70K26,Cl 70 entre Kr 26 y 25B,3.43871444,-76.49304306,0
514138,C70K24A,Cl 70 entre Kr 24B y 24A,3.44132667,-76.49174083,0
514147,K25C114,Kr 25 entre Cl 114 y 113,3.42798333,-76.465895,0
514150,C70K7RBI,Cl 70 entre Kr 7Rbis y 7Mbis,3.45522167,-76.48452833,0
514152,C73K7F,Cl 73 entre Kr 7F y 7G,3.46074667,-76.48093167,0
514153,C73K7LB,Cl 73 con Kr 7LBis,3.45705,-76.48186833,0
514154,C73K7RB,Cl 73 entre Kr 7RBis y 7SBis,3.45410333,-76.48254667,0
514155,C73K81,Cl 73 con Kr 8,3.4515,-76.4831,0
514156,C73K11,Cl 73 entre Kr 11 y Dg 14,3.44727361,-76.48413306,0
514157,C73K112,Cl 73 entre Kr 11 y 10,3.4481925,-76.48325167,0
514161,C95K26I7,Cl 95 entre Kr 26I7 y 26I6,3.42591139,-76.47634278,0
514162,C95K26H,Cl 95 entre Kr 26H y 26G4,3.42623889,-76.47460917,0
514163,C97K26F1,Cl 97 entre Kr 26F1 y 26F,3.42639028,-76.47245806,0
514171,K27C1201,Kr 27 entre Cl 120 y 116,3.41459028,-76.47260806,0
514172,K27C114,Kr 27 entre Cl 114 y 113,3.41540083,-76.47417528,0
514173,C112K26Q,Cl 112 entre Kr 27 y 26Q,3.41722333,-76.47383278,0
514174,C11226J5,Cl 112 entre Kr 26J5 y 26J,3.4205775,-76.47188389,0
514176,C112K26E,Cl 112 entre Kr 26F y 26E,3.42442389,-76.4696925,0
514177,K26CC99,Kr 26C entre Cl 99 y 98,3.42702944,-76.47075778,0
514178,K26GC97,Kr 26G entre Cl 97 y 94A,3.42646833,-76.47313333,0
514179,C94K26H,Cl 94 entre Kr 26H y 26I,3.42602944,-76.47498583,0
514186,K27T1031,Kr 27 entre Tr 103 y Cl 104,3.41751611,-76.47822861,0
514190,K27C1061,Kr 27 entre Cl 106 y Tr 103,3.41753056,-76.47788167,0
514192,K27C91,Kr 27 entre Cl 91 y 88,3.42041889,-76.48107861,0
514193,K27C81,Kr 27 entre Cl 81 y 80,3.42230667,-76.48285,0
514194,K25C80B,Kr 25 entre Cl 80B y 80C,3.43584667,-76.473505,0
514195,K25C84,Kr 25 entre Cl 84 y 85,3.43406333,-76.47231667,0
514196,K25C891,Kr 25 entre Cl 89 y 94,3.43128,-76.46929167,0
514197,K25C94,Kr 25 entre Cl 94 y 112,3.42938833,-76.467175,0
514198,K25C112,Kr 25 entre Cl 112 y 113,3.42798,-76.46609,0
514199,C121K25,Cl 121 entre Kr 25 y 25B,3.425725,-76.46538333,0
514200,C121K26F,Cl 121 entre Kr 26F y 26F Bis,3.42150167,-76.46678167,0
514201,C121K26K,Cl 121 entre Kr 26K y 26K1,3.41784833,-76.468655,0
514202,C121K26R,Cl 121 entre Kr 26R y 26R1,3.41474667,-76.47044333,0
514204,C121K28D,Cl 121 entre Kr 28D y C121D,3.40877167,-76.47386,0
514205,C121C122,Cl 121 entre Cl 122A2 y 122A3,3.406745,-76.47501833,0
514206,C121122A,Cl 121 entre Cl 122A3 y 122A2,3.40686333,-76.47482333,0
514207,C121C121,Cl 121 entre Cl 121D y Kr 28D,3.4088,-76.47373833,0
514208,C121K26P,Cl 121 con Kr 26P,3.41463667,-76.47036667,0
514209,C121K26J,Cl 121 entre Kr 26J2 y 26J3,3.41762167,-76.46867333,0
514210,C121K26E,Cl 121 entre Kr 26E y 26F,3.422345,-76.46605,0
514211,C121K25B,Cl 121 entre Kr 25A y 25B,3.42524,-76.46526833,0
514212,K25C104,Kr 25 entre Cl 104 y 105,3.42982667,-76.46729167,0
514213,K25C892,Kr 25 entre Cl 89 y 94,3.43184667,-76.46990667,0
514214,K25C85,Kr 25 entre Cl 85 y 86,3.43356,-76.47154167,0
514215,K25C80A,Kr 25 entre Cl 80A y 80B,3.43636667,-76.47376167,0
514218,C73K7CBI,Cl 73 entre Kr 7C Bis y 7D,3.46337722,-76.48036722,0
514219,T103K26A,Tr 103 entre Kr 26A2 y 26A3,3.43948194,-76.48116917,0
514220,T103C73C,Tr 103 entre Cl 73C,3.43968,-76.48112056,0
514232,C121K27J,Cl 121 entre Kr 27I y 27J,3.41153333,-76.47231,0
514235,C123K28A,Cl 123 entre Kr 28B y 28A,3.40965528,-76.46990389,0
514236,C123K26S,Cl 123 entre Kr 26T y 26S,3.4129575,-76.46892333,0
514241,C67K7E,Cl 67 entre Kr 7EBis y 7F,3.45962833,-76.486425,0
514243,C63K7F,Cl 63 entre Kr 7F y 7F Bis,3.45776639,-76.48841667,0
514245,C61K7VBS,Cl 61 entre Kr 7V Bis y 8,3.45300889,-76.49006889,0
514246,C123K28D,Cl 123 Kr 28D y 28D1,3.40711806,-76.47033056,0
514257,K12C59,Kr 12 entre Cl 59 y 58A,3.44777417,-76.49429833,0
514258,K10C27,Kr 10 entre Cl 27 y 28,3.45048694,-76.51684972,0
514259,K10C32,Kr 10 entre Cl 32 y 33,3.45124806,-76.51269139,0
514260,K10C34,Kr 10 entre Cl 34 y 35,3.45133861,-76.51027944,0
514261,K10C38,Kr 10 entre Cl 38 y 39,3.45140917,-76.50785417,0
514262,C44K8A1,Cl 44 entre Kr 8A y 9,3.45191444,-76.5050575,0
514263,K12C58,Kr 12 entre Cl 58 y 59,3.44766444,-76.49432028,0
514269,C12328D7,Cl 123 entre Kr 28D7 y 28D5,3.40531278,-76.47124167,0
514270,C12328D3,Cl 123 entre Kr 28D3 y 28D,3.4070475,-76.47021056,0
514271,C123K27B,Cl 123 entre Kr 27B y 27,3.41196306,-76.469465,0
514273,K27C116,Kr 27 entre Cl 116 y 120,3.41470194,-76.47329,0
514276,C112K26L,Cl 112 entre Kr 26L y 26K1,3.41894806,-76.47285806,0
514277,C11226H3,Cl 112 entre Kr 26H3 y 26H2,3.42262667,-76.47068083,0
514278,C79K28D,Cl 79 entre Kr 28C y 28D,3.420075,-76.48648528,0
514285,C44K12B,Cl 44 entre Kr 12B y 12C,3.44709722,-76.50379528,0
514287,D71K22,Dg 71 entre Kr 22 y 22C,3.440245,-76.48530861,0
514290,D70K25B,Dg 70 entre Kr 25Bis y 25A1,3.43894889,-76.48966222,0
514291,D70K26,Dg 70 entre Kr 26 y 26A,3.43736222,-76.49167556,0
514292,K26ID70,Kr 26I entre Dg 70 y 71,3.43479889,-76.49284722,0
514293,K26ID72B,Kr 26I entre Dg 72B y 72C,3.43288639,-76.49189056,0
514294,D72CK26J,Dg 72C entre Kr 26J y 26L,3.43184917,-76.49342778,0
514301,C72UK27G,Cl 72U entre Kr 27G y 27F,3.42474,-76.48872222,0
514302,C72UK27,Cl 72U entre Kr 27 y 26R,3.42662861,-76.48773194,0
514303,C72UK26J,Cl 72U entre Kr 26J y 26I3,3.4292825,-76.48637,0
514304,C72UK26H,Cl 72U entre Kr 26H3 y 26H2,3.43083139,-76.48556222,0
514305,C72UK26G,Cl 72U entre Kr 26G8 y 26G7,3.43302556,-76.48452917,0
514306,C72UK26F,Cl 72U entre Kr 26G7 y 26G8,3.43281917,-76.48473083,0
514307,C72U26H3,Cl 72U entre Kr 26G11 y 26H3,3.43106139,-76.48567083,0
514308,C72UK26I,Cl 72U entre Kr 26I2 y 26J,3.42935667,-76.48655722,0
514309,C72UK26S,Cl 72U entre Kr 26S y 27,3.42692056,-76.48782,0
514312,C44K8,Cl 44 entre Kr 7 y 8,3.45427722,-76.50568778,0
514313,C44K81,Cl 44 entre Kr 8 y 7,3.45437167,-76.50547167,0
514314,K8C44B,Kr 8 entre 44B y 47,3.45302028,-76.50338889,0
514322,K26JC122,Kr 26J entre Cl 122A y 122,3.41785833,-76.46686167,0
514323,C121K26Q,Cl 121 entre Kr 26R y 26Q,3.41453028,-76.47041972,0
514326,C123K281,Cl 123 entre Kr 28D5 y 28D7,3.40506778,-76.47153944,0
514331,K28FC12C,Kr 28F entre Cl 122B y 122C,3.40229556,-76.473015,0
514342,C59K10,Cl 59 entre Kr 10 y 10A,3.449795,-76.49346194,0
514343,K8C34A,Kr 8 entre Cl  35 y 34A,3.45413611,-76.5103225,0
514344,C59K10A,Cl 59 entre Kr 10A y 10,3.44975056,-76.49332083,0
514345,C73K8A,Cl 73 entre Kr 8A y 8B,3.45064194,-76.48335833,0
514346,K8C702,Kr 8 entre Cl 70,3.45229556,-76.48680556,0
514347,K8C703,Kr 8 con Cl 70,3.45207111,-76.48679167,0
514348,C44K15,Cl 44 entre Kr 15 y 14,3.44476028,-76.50305889,0
514349,C44K12C,Cl 44 entre Kr 12C y 12,3.44743472,-76.50373889,0
514350,C44K15A,Cl 44 entre Kr 15A y 16,3.44360722,-76.50289361,0
514351,D26F1T73,Dg 26F1 entre Tr 73A y Cl 73B,3.43603694,-76.48258,0
514358,K26CC94,Kr 26C entre Cl 94 y 91,3.4284975,-76.47197444,0
514359,K26C91,Kr 26 entre Cl 91 y 89,3.43012556,-76.47328639,0
514360,C84K26DT,Cl 84 entre Kr 26D y Tr 103,3.43148111,-76.47470444,0
514361,C84K26D1,Cl 84 entre Kr 26D y Tr 103,3.43020333,-76.47636111,0
514362,K26GT103,Kr 26G entre Tr 103 y Cl 78,3.43365194,-76.47944833,0
514363,K26GC76,Kr 26G entre Cl 76 y 75,3.4348175,-76.48123306,0
514364,K26GC75,Kr 26G entre Cl 75 y 76,3.43488639,-76.481435,0
514367,C73K25S1,Cl 73 entre Kr 25S y 25T,3.44085833,-76.484395,0
514368,C73K26B2,Cl 73 entre Kr 26B2 y 26B1,3.43907028,-76.48377111,0
514369,C73K25U,Cl 73 entre Kr 25U y 25T,3.44077944,-76.48386417,0
514370,C73K26G6,Cl 73 entre Kr 26G6 y 26G7,3.43334167,-76.48423361,0
514371,C73K26G4,Cl 73 entre Kr 26G4 y 26G3,3.43434194,-76.48370806,0
514372,C73K26H3,Cl 73 entre Kr 26H3 y 26I,3.42972667,-76.484055,0
514373,C73K26H2,Cl 73 entre Kr 26H3 y 26H2,3.43015667,-76.483525,0
514374,C73K26M,Cl 73 entre Kr 26M y 26N,3.42679972,-76.48467611,0
514375,C73K26R,Cl 73 entre Kr 26R y 26P,3.42637,-76.48434333,0
514376,C72YK27A,Cl 72Y entre Kr 27A y 27B,3.42337333,-76.48610861,0
514377,C73K27,Cl 73 entre Kr 27 y 26U,3.42468333,-76.48498667,0
514378,C79K28C1,Cl 79 entre Kr 28C y 28D,3.41887917,-76.48651417,0
514379,C79K28D2,Cl 79 entre Kr 28D y 28C,3.41869944,-76.48616278,0
514381,C73K26F1,Cl 73 entre Kr 26F1 y 26F,3.43616444,-76.48373528,0
514382,C73D191,Cl 73 entre Dg 19 y K22,3.44367889,-76.48438194,0
514384,C73D26I2,Cl 73 entre Dg 26I3 y 26I2,3.428345,-76.48357167,0
514386,C44K9,Cl 44 entre Kr 9 y 8A,3.45211278,-76.50490611,0
514387,C44K11D,Cl 44 entre Kr 11D y 11F,3.44933389,-76.50440889,0
514388,K12C48,Kr 12 entre Cl 48 y 47,3.448825,-76.50235833,0
514389,K12C45,Kr 12 entre Cl 45 y 48,3.44875333,-76.50228167,0
514390,K12C521,Kr 12 entre Cl 52 y 51,3.44849333,-76.49944333,0
514391,K12C522,Kr 12 entre Cl 52 y 53,3.44826167,-76.49848,0
514392,K12C56,Kr 12 entre Cl 56 y 54,3.448225,-76.496655,0
514393,K12C55,Kr 12 entre Cl 55 y 56,3.44804,-76.49645333,0
514396,C59K8,Cl 59 entre Kr 8 y 8A,3.45185333,-76.49298333,0
514397,C59K8A,Cl 59 entre Kr 8A y 8,3.45186667,-76.49293167,0
514399,C70K7RB,Cl 70 con Kr 7RBis,3.45514222,-76.48530556,0
514400,C73K25C,Cl 73 entre Kr 25C y 25C1,3.43787139,-76.48430444,0
514401,C73D18,Cl 73 entre Dg 18 y 17,3.44516389,-76.48377361,0
514403,T103K28B,Tr 103 entre Kr 28B y 28A,3.41419556,-76.47931111,0
514404,T103K27B,Tr 103 entre Kr 27B y 27A,3.41725917,-76.47876417,0
514405,RPETM,Retorno Patio ETM,3.4060375,-76.47529417,0
514406,C70K7BP1,Cl 70 entre Kr 7B Bis,3.45498972,-76.48521056,0
514407,C70K11P2,Cl 70 con Kr 11,3.44981694,-76.48793444,0
514408,K23C70,Kr 23 entre Cl 70 y 63,3.44376806,-76.49189917,0
514409,C70K11P1,Cl 70 con Kr 11,3.44981556,-76.48764694,0
514410,C70K7RP2,Cl 70 con Kr 7RBis,3.45483722,-76.48501694,0
514411,K8C72,Kr 8 entre Cl 72 y 72B,3.45175778,-76.48465111,0
514412,K8C7271,Kr 8 entre Cl 72 y 71,3.4522075,-76.48537694,0
514413,C70K7L7J,Cl 70 entre Kr 7lL y 7JBis,3.45795778,-76.48313194,0
514414,C70K7EB2,Cl 70 entre Kr 7E Bis y 7E,3.46116833,-76.48277472,0
514415,C76K28A,Cl 76 entre Kr 28A y 28,3.42035861,-76.48615889,0
514417,C73D26H,Cl 73 entre Dg 26G11 y Kr 26H,3.43151528,-76.48414444,0
514421,K27C96,Kr 27 entre Cl 96 y 95,3.41874028,-76.47932,0
514422,K27C9196,Kr 27 entre Cl 91 y 96,3.41873611,-76.47948583,0
514425,K24CD71A,Kr 24C Con Dg 71A1 y 70E,3.43774278,-76.48798278,0
514426,K24CD70A,Kr 24C Con Dg 70A1,3.43928639,-76.48885139,0
514427,T103D26O,Tr 103 entre Dg 26O,3.42623722,-76.47734417,0
514428,C121K26I,Cl 121 entre Kr 26I2 y 26I3,3.41934333,-76.4678,0
514429,C121K263,Cl 121 entre Kr 26I3 y 26I2,3.41933333,-76.46765333,0
514431,C73D26G9,Cl 73 entre Dg 26G9 y 26G8,3.43255194,-76.48367,0
514432,K28DC79,Kr 28D Con Cl 79,3.41856667,-76.48694639,0
514434,C61K7RB,Cl 61 con Kr 7R Bis,3.45558444,-76.48981444,0
514443,C73D26M,Cl 73 entre Kr 26M y Dg 26M,3.42616611,-76.48442778,0
514444,D70K26H3,Dg 70 entre Kr 26H3 y 26H,3.43561667,-76.49226917,0
514449,D71AC72,Dg 71A con Cl 72,3.44040222,-76.48499111,0
514450,K7CC692,Kr 7C entre Cl 69 y 70,3.4628075,-76.48435444,0
514451,K7EBC69,Kr 7EBis entre Cl 69 y 67,3.46071306,-76.48399944,0
514452,K7LC67A,Kr 7LBis entre Cl 67A y 67,3.457485,-76.48586333,0
514453,K7LC64,Kr 7LBis entre Cl 64 y 63,3.45768389,-76.48815278,0
514454,C63K7P,Cl 63 entre Kr 7P y 7PBis,3.45631611,-76.48816444,0
514455,C52K8,Cl 52 entre Kr 8 y 9,3.45229722,-76.49876361,0
514456,C52K10,Cl 52 entre Kr 10 y 11,3.45003222,-76.49898417,0
514457,C52K12,Cl 52 entre Kr 12 y 12A,3.44802944,-76.49920111,0
514458,C52K12C,Cl 52 entre Kr 12C y 12E,3.44633389,-76.49939333,0
514459,C52K14,Cl 52 entre Kr 14 y 15,3.44463333,-76.49955639,0
514460,C63K8,Cl 63 entre Kr 8 y 7VBis,3.45282306,-76.48841722,0
514461,C63K7S,Cl 63 entre Kr 7SBis y 7S,3.45507667,-76.48821194,0
514462,C63K7E,Cl 63 entre Kr 7E y 7DBis,3.45969694,-76.48895333,0
514463,K7CC64,Kr 7C entre Cl 64 y 65,3.46153361,-76.4884775,0
514464,K7CC68,Kr 7C entre Cl 68 y 69,3.46251639,-76.48577861,0
514465,K26JC121,Kr 26J entre Cl 121 y 122,3.41813944,-76.46787056,0
514466,C123K26,Cl 123 entre Kr 26H1 y 26H Bis,3.42023778,-76.46496333,0
514467,K29C80,Kr 25 entre Cl 79 y 80,3.43755,-76.47521222,0
514468,K27C108,Kr 27 entre Cl 108 y 109,3.41628111,-76.47601194,0
514469,K27C109,Kr 27 entre Cl 109 y 108,3.41637778,-76.47594889,0
514470,K27C112,Kr 27 entre Cl 112 y 113,3.41546,-76.47460972,0
514473,K28D9C12,Kr 28D9 entre Cl 122K y 122J,3.40376194,-76.47225889,0
514475,K26D70,K26 entre Dg 70 y 70A,3.43726639,-76.49147361,0
514476,K26D70D,K26 entre Dg 70D y 71A,3.43585472,-76.49051861,0
514477,D71AK25C,Dg 71A con Kr 25C,3.43659556,-76.48925944,0
514478,D71AK24C,Dg 71A con Kr 24C,3.43722694,-76.48780028,0
514479,C123A3,Cl 123A3 con Kr 28F,3.40192722,-76.47094444,0
514480,K28D7,Kr 28D7 con Cl 28D7 y 28D5,3.40336333,-76.47131333,0
515001,C8K41,Cl 8 entre Kr 3 y 4,3.45124944,-76.53548139,0
515002,K39C401,Kr 39 entre Cl 40 y 39,3.41731944,-76.50596917,0
515006,K39C511,Kr 39 entre Cl 51 y 50,3.41003417,-76.49902528,0
515007,K39C482,Kr 39 entre Cl 48 y 49,3.41089417,-76.50018,0
515008,K39C541,Kr 39 entre Cl 54 y 53,3.40828194,-76.49735417,0
515009,C54K392,Cl 54 entre Kr 38B y 38A,3.40803639,-76.49659583,0
515010,C55K32A1,Cl 55 entre Kr 32A y 33,3.41045222,-76.49368944,0
515011,C55K332,Cl 55 entre Kr 33 y 32A,3.41023139,-76.49340972,0
515012,C83K28E1,Cl 83 entre Kr 28E y 28E3,3.41533861,-76.48863167,0
515013,C83K28E3,Cl 83 entre Kr 28E3 y 28E,3.41515861,-76.48833472,0
515014,C55K291,Cl 55 entre Kr 29 y 30,3.41212917,-76.49201083,0
515015,C54K30,Cl 55 entre Kr 30 y 29,3.41191278,-76.49157861,0
515016,K39C461,Kr 39 entre Cl 46 y 45A,3.41299694,-76.50193806,0
515017,K39C45A,Kr 39 entre Cl 45A y 46,3.41299139,-76.50214306,0
515018,C55K331,Cl 55 entre Kr 33 y 34,3.40920667,-76.49489861,0
515019,C55K34,Cl 55 entre Kr 34 y 33,3.4088125,-76.49489806,0
515022,C54K39A,Cl 54 entre Kr 39 y 39A,3.40746972,-76.49780472,0
515023,C54K39H,Cl 54 entre Kr 39H y 40,3.40608639,-76.49940667,0
515024,C54K41,Cl 54 entre Kr 41 y 41B,3.40530306,-76.50051861,0
515025,K46C50,Kr 46 entre Cl 50 y 51,3.40022722,-76.50942833,0
515026,C54K49B,Cl 54 entre Kr 49B y  49C,3.39534667,-76.51155167,0
515027,K50C51,Kr 5O entre Cl 51 y 50,3.39577667,-76.51428167,0
515028,C48K47A,Cl 48 entre Kr 46D y 46C,3.40094611,-76.51173833,0
515029,C36K46,Cl 36 entre Kr 46 y 44A,3.41002472,-76.51748278,0
515030,C36K43,Cl 36 entre Kr 43 y 42B,3.41204778,-76.51537583,0
515036,C48K37,Cl 48 entre Kr 37 y 36,3.41215556,-76.49942806,0
515037,C48K32A,Cl 48 entre Kr 32A y 30D,3.41464556,-76.4968375,0
515040,K29C83,Kr 29 entre Cl 83 y 79,3.41297389,-76.49157167,0
515041,C54K45,Cl 54 entre Kr 45 y 43C,3.39912889,-76.5070125,0
515042,C54K42C1,Cl 54 entre Kr 42C1 y 42C,3.40091472,-76.50502417,0
515043,C54K41G,Cl 54 entre Kr 41G y 41E3,3.40271278,-76.50316056,0
515044,C54K41D,Cl 54 entre Kr 41D y 41B,3.40425806,-76.50146889,0
515045,C54K41B,Cl 54 entre Kr 41B y 39E,3.40648611,-76.49848028,0
515046,K29C72Y,Kr 29 entre Cl 72Y y 48,3.41620306,-76.49466222,0
515048,C48K35,Cl 48 entre Kr 34 y 35,3.41268222,-76.49900583,0
515049,C48K38B,Cl 48 entre Kr 38B y 38C,3.4109075,-76.50100889,0
515050,C48K40,Cl 48 entre K40 y 40A,3.40924972,-76.50278194,0
515051,C48K41C,Cl 48 entre Kr 41C y 41D,3.40756694,-76.504605,0
515052,C48K41F,Cl 48 entre Kr 41F y 41G,3.40629417,-76.50602056,0
515054,C54K43B,Cl 54 entre Kr 43B y 44,3.39969444,-76.50682639,0
515057,C48K40B,Cl 48 entre Kr 40B y 40A,3.40903972,-76.50290889,0
515058,K29C72U,Kr 29 entre Cl 48 y 72U,3.416905,-76.49533333,0
516214,C14K40A,Cl 14 entre Kr 40A y 40,3.41698306,-76.52761583,0
517156,C2K66A,Cl 2 entre Kr 66A y 66B,3.396805,-76.55324611,0
517159,C1CK70,Cl 1C entre Kr 70 y 71 Polideportivo,3.39275583,-76.55382306,0
517162,C3K67,Cl 3 entre Kr 67 y 66B,3.39661,-76.54979611,0
517165,C3K69,Cl 3 entre Kr 69 y 68,3.39470944,-76.54952444,0
517166,K55BC3,Kr 55B entre Cl 3 y 1A,3.41054167,-76.55062083,0
517167,C3K61A,Cl 3 entre Kr 62 y 61A,3.40464556,-76.54975194,0
517168,K56C3,Kr 56 entre Cl 3 y 1B,3.40955167,-76.55188,0
517169,K56C1B,Kr 56 entre Cl 3 y 1B,3.40981528,-76.55397056,0
517171,K39C5Y4,Kr 39 entre Cl 5 y 4,3.42458917,-76.54770222,0
517172,K39C2A,Kr 39 entre Cl 2A y 2,3.42513639,-76.55083,0
517173,K56C8OE,Kr 56 entre Cl 7 Oe y 8 Oe,3.41128583,-76.56062639,0
517174,C13OC55A,Cl 13 Oe entre Kr 55A y 56,3.40920889,-76.56433139,0
517176,K56C2OE,Kr 56 entre Cl 2 Oe y 1A Oe,3.41089611,-76.55677417,0
517177,C1K561,Cl 1 entre Kr 56 y 55,3.4111425,-76.55563694,0
517178,K56C6A,Kr 56 entre Cl 6A y 5,3.40869778,-76.54621806,0
517179,K56C8O1,Kr 56 entre Cl 7 Oe y 8 Oe Vivero,3.40976917,-76.56276694,0
517180,K56BC1,Kr 56 Barrio Canaveral 1,3.40929611,-76.56655639,0
517183,K56IDEAS,Colegio Ideas Crucerito,3.40984417,-76.5716525,0
517184,C13OEPPC,Kr 13 Oe Entrada Ppal Cementerio,3.40821139,-76.57035417,0
517185,K56BC2,Kr 56 Barrio Canaveral 2,3.40854083,-76.56745778,0
517186,K56BC3,Kr 56 Barrio Canaveral 3,3.40952806,-76.56623056,0
517187,K56C8O2,Kr 56 entre Cl 8 Oe y 7 Oe,3.40985222,-76.56252028,0
517188,K56C8O3,Kr 56 entre Cl 8 Oe y 7 Oe,3.41179361,-76.5598025,0
517189,K56C5OE,Kr 56 entre Cl 5 Oe y 3 Oe,3.41176861,-76.55803306,0
517190,C6KDG24,Cl 6 entre Kr 36 y Dg 24,3.425965,-76.540185,0
517195,K42C5,Kr 42 entre Cl 5 y 3A,3.42261472,-76.54872583,0
517196,K42C2A,Kr 42 entre Cl 2A y 2,3.42341222,-76.55123389,0
517200,K66C101,Kr 66 entre C10 y 9A,3.398205,-76.54333417,0
517203,D51C13AO,Dg 51 entre Cl 13A Oe y 14 Oe,3.41341139,-76.56291028,0
517204,D51C14O,Dg 51 entre Cl 14 Oe y 13A Oe,3.41283917,-76.56344833,0
517205,D51K54D,Dg 51 entre Kr 54D y 53,3.41463583,-76.56141194,0
517208,C6K37A,Cl 6 entre 37A y 38,3.42376833,-76.54112,0
517211,C6K39T5,Cl 6 entre Kr 39 y Tr 5,3.42159333,-76.542085,0
517212,K56C9C,Kr 56 entre Cl 9C y 9B,3.40706111,-76.54115944,0
517213,K56C9,Kr 56 entre Cl 9 y 10,3.40700194,-76.54151278,0
517214,K56C5Y3,Kr 56 entre Cl 5 y 3,3.40911333,-76.54835667,0
517215,C6K44,Cl 6 entre Kr 44 y 45A,3.41720167,-76.54405,0
517216,C13OECJR,Cl 13 Oe Cementerio Jardines del Recuerd,3.40830667,-76.57060694,0
517217,K56IDEA1,Colegio Ideas Crucerito 1,3.41003556,-76.57163028,0
517218,SIRENA1,Via la sirena Quebrada las Pilas,3.40960306,-76.572685,0
517219,SIRENA2,La Sirena Fin de Ruta,3.40765,-76.5751625,0
517221,SIRENA4,Via la sirena Quebrada las Pilas 2,3.40947083,-76.57281306,0
517222,C7OK52,Cl 7 Oe entre Kr 52 y 51A,3.41701889,-76.559285,0
517223,C7OK51A,Cl 7 Oe entre Kr 51A y 52,3.41676472,-76.56029333,0
517224,D51C14OE,Dg 51 con Cl 14 Oe Cementerio Jardines d,3.4122975,-76.56603667,0
517225,D51C14E,Dg 51 con Cl 14 Oe Escuela de Carabinero,3.41224417,-76.56599111,0
517226,K70C1C,Kr 70 entre Cl 1C y 2B,3.39331306,-76.55330278,0
517227,K70C2C,Kr 70 entre Cl 2C y 3,3.39370111,-76.55034972,0
517228,C1K55,Cl 1 entre Kr 55 y 54,3.41279472,-76.55557306,0
517229,PUEROJ,Via la sirena Puente Rojo,3.40874167,-76.5746975,0
517230,PUEROJ1,Via la sirena Puente Rojo 1,3.40862028,-76.57467611,0
517231,C1K56,Calle 1 entre Carrera 56 y 59,3.40892278,-76.55575972,0
517232,C1K562,Cl 1 entre Kr 59 y 56,3.40879028,-76.55565333,0
517245,K73C3C,Kr 73 entre Cl 3 y 3C,3.39158833,-76.5482975,0
517246,C4K73,Cl 4 entre Kr 73 y 72,3.39252389,-76.54652083,0
517247,C3K73,Cl 3 entre Kr 73 y 70,3.39238333,-76.54924389,0
517248,K52C1,Kr 52 con Cl 1,3.41639833,-76.55529139,0
517249,K73C4,Kr 73 entre Cl 4 y 3B,3.39172639,-76.54793167,0
517250,K73C3,Kr 73 entre Cl 3 y 2C,3.39148167,-76.54961444,0
517251,C2AK73B,Cl 2A entre Kr 73B y 73C,3.39039583,-76.55152139,0
517252,K74C2,Kr 74 entre Cl 2 y 1C,3.39022611,-76.55363417,0
517253,C1CK73,Cl 1C entre Kr 73 y 72,3.39154,-76.55377611,0
517254,K70C1B,Kr 70 entre Cl 1B y 1A,3.39303889,-76.55522722,0
517255,K70C1A,Kr 70 entre Cl 1A y 1C,3.39291389,-76.55540806,0
517256,K70C3C,Kr 70 entre Cl 3C y 4,3.3941025,-76.54761028,0
517257,C5K39,Cl 5 entre Kr 39 y 40,3.42396083,-76.54699556,0
517258,C5K34A,Cl 5 entre Kr 34A y 35,3.43182139,-76.54332472,0
517259,C5K36,Cl 5 entre Kr 36 y 37A,3.42958944,-76.54450944,0
517261,K66C6,Kra 66 entre Cl 6 y 5,3.39819861,-76.54561667,0
517262,K66C5,Kra 66 entre Cl 5 y 4,3.39816833,-76.54698,0
517263,K66C3A,Kra 66 entre Cl 3A y 3,3.39819722,-76.54969778,0
517264,K66C2B,Kra 66 entre Cl 2B y 2A,3.398215,-76.55183333,0
517265,K66C2,Kra 66 con Cl 2,3.39843083,-76.55370083,0
517266,K66C21,Kra 66 con Cl 2,3.39834472,-76.55384889,0
517267,K66C2D,Kra 66 entre Cl 2B y 2DA,3.39808111,-76.55102778,0
517268,K66C5A,Kra 66 entre Cl 5 y 5A,3.39803333,-76.54591639,0
517269,C1K42A,Cl 1 entre Kr 42A y 43A,3.42300528,-76.55305611,0
518001,C8K141,Cl 8 entre Kr 14 y 14A,3.44262,-76.534285,0
518003,K39D301,Kr 39 entre Dg 30 y Cl 34C,3.42001083,-76.50895222,0
518004,K39C31,Kr 39 entre Cl 31 y 29,3.41968667,-76.51464139,0
518005,K39C312,Kr 39 entre Cl 31A y 32,3.41946472,-76.51380778,0
518006,K39C32A,Kr 39 entre Cl 32A y 32,3.41983806,-76.51201917,0
518009,K39C261,Kr 39 entre Cl 26A y 26,3.41937389,-76.51996306,0
518010,K39C262,Kr 39 entre Cl 25 y 26,3.41907,-76.52055111,0
518012,K39C372,Kr 39 entre Cl 37 y 38,3.41859833,-76.50756861,0
518013,K39C29,Kr 39 entre Cl 29 y 30,3.41936611,-76.51583556,0
518016,K23C26B,Kr 23 entre Cl 26B y T25,3.43585667,-76.51619667,0
518018,K23C33C1,Kr 23 entre Cl 33C y D23,3.43708833,-76.512145,0
518019,K23T29,Kr 23 entre Tr 29 y C33B,3.4365825,-76.51204667,0
518020,K23C33F,Kr 23 entre Cl 33F y 33C,3.43782056,-76.50925611,0
518021,K23C33C,Kr 23 entre Cl 33C y 33F,3.43748333,-76.50875667,0
518022,K23C361,Kr 23 entre Cl 36 y 34,3.43862833,-76.50675667,0
518023,K23C36,Kr 23 entre Cl 36 y 38,3.43834333,-76.506005,0
518024,K23C40,Kr 23 entre Cl 41 y 39,3.43921583,-76.50491028,0
518025,K23C39,Kr 23 entre Cl 39 y 41,3.43884833,-76.50454,0
518027,K23C43,Kr 23 entre Cl 43 y 44,3.439755,-76.50191667,0
518030,C70D15,Cl 70 entre Dg 15 y 13,3.4457525,-76.48936889,0
518031,C52K20,Cl 52 entre Kr 20 y 22,3.44193667,-76.49946333,0
518032,C27K361,Cl 27 entre Kr 35 y 36,3.42115889,-76.51734333,0
518033,C27K362,Cl 27 entre Kr 36 y 35,3.42104111,-76.51718,0
518034,C27K33A1,Cl 27 entre Kr 33 y 33B,3.42281333,-76.51722833,0
518035,C27K33A2,Cl 27 entre Kr 33A y 33,3.42261028,-76.51706472,0
518036,C27K31A1,Cl 27 entre Kr 31 y 31B,3.42578722,-76.51703056,0
518037,C27K31A2,Cl 27 entre Kr 31A y 31,3.42597778,-76.516835,0
518039,K29C27,Kr 29 entre Cl 27 y 26B,3.42879167,-76.51721333,0
518041,K29C26B1,Kr 29 entre Cl 26B y 25,3.42905667,-76.51941167,0
518042,C25K27,Cl 25 entre Kr 27 y 26,3.4305475,-76.51976444,0
518045,C28T251,Cl 28 entre Tr 25 y 25C,3.43463611,-76.51474528,0
518046,C28K24B1,Cl 28 entre Kr 24B y 25,3.43242167,-76.51637333,0
518049,C70K26E2,Cl 70 entre Kr 26E y 26D,3.43644167,-76.494235,0
518050,C70K26J,Cl 70 entre Kr 26J y 26K,3.43393361,-76.49641833,0
518051,C70D69,Cl 70 entre Dg 69 y 70,3.43409667,-76.49550667,0
518057,C70T28E,Cl 70 entre Tr 28E y 28D,3.42590694,-76.50098056,0
518058,C70K29,Cl 70 entre Kr 29 y 29A,3.42432417,-76.50324083,0
518060,C70K32,Cl 70 entre Kr 32 y 32B,3.42247611,-76.50524528,0
518061,C70K32A2,Cl 70 entre Kr 32A y32,3.42236333,-76.50471083,0
518063,C70K39,Cl 70 entre Kr 39 y 36,3.41976167,-76.50741361,0
518065,D30K33A1,Dg 30 entre Kr 33A y 33C,3.42215278,-76.50725972,0
518069,K32C34,Kr 32 entre Cl 34 y 35,3.424295,-76.508545,0
518071,K32C32,Kr 32 entre Cl 32 y 32A,3.42464667,-76.511285,0
518074,K39C19,Kr 39 entre Cl 19 y 18 Occidental,3.419085,-76.52273333,0
518077,K23C49,Kr 23 entre Cl 49 y 48,3.44057222,-76.50100667,0
516215,C14K40,Cl 14 entre Kr 40 y 40A,3.4173325,-76.52769694,0
516216,C14K38A,Cl 14 entre Kr 38A y 37A,3.41913417,-76.52730556,0
516217,C14K37,Cl 14 entre Kr 37 y 39,3.41941278,-76.52749778,0
516218,C14K34,Cl 14 entre Kr 34 y 33A,3.42289944,-76.52749611,0
516219,C14K33A,Cl 14 entre Kr 33A y 34,3.42273083,-76.52769167,0
516220,C14K32,Cl 14 entre Kr 32 y 31,3.42603,-76.5276525,0
516221,C14K31,Cl 14 entre Kr 31 y 32,3.42602972,-76.52788278,0
516224,C14K72,Cl 14 entre Kr 72 y 75,3.39027833,-76.53259333,0
516225,C14K76,Cl 14 entre Kr 76 y 73,3.38989333,-76.53241167,0
516226,C14K69A,Cl 14 entre Kr 69A y 70,3.39391583,-76.53254833,0
516227,C14K70,Cl 14 entre Kr 70 y 69A,3.39407806,-76.53233917,0
516228,C14K66A,Cl 14 entre Kr 66 y 66A,3.39736,-76.53241167,0
516230,C25K561,Cl 25 entre Kr 56 y 61,3.40091028,-76.52347639,0
516231,K56C14,Kr 56 entre Cl 14 y 14C,3.40333333,-76.53036222,0
516232,K56C15,Kr 56 entre Cl 15 y 16,3.40275778,-76.52864833,0
516233,K56C7A,Kr 56 entre Cl 7A y 6A,3.40825639,-76.54489944,0
516234,C25K41,Cl 25 entre Kr 41 y 40B,3.40130917,-76.522855,0
516235,C13K29B,Cl 13 entre Kr 29B y 31,3.42748139,-76.52851556,0
516236,C14K6867,Cl 14 entre Kr 68 y 67,3.39672222,-76.53229667,0
516237,C14K49,Cl 14 entre Kr 49 y 48,3.40927111,-76.529745,0
516238,C14K46,Cl 14 entre Kr 46 y 45,3.41201472,-76.5289875,0
516239,K39C15,Kr 39 entre Cl 15 y 14C,3.41838861,-76.5263325,0
516240,K39C26C,Kr 39 entre Cl 26C y 26E,3.41927361,-76.51833944,0
516241,K39C13B,Kr 39 entre Cl 13B y 13A,3.41900611,-76.5297575,0
516242,K39C11B,Kr 39 entre Cl 11B y 10A,3.4204575,-76.53418306,0
516243,C27K40B,Cl 27 entre Kr 40B y 40A,3.41784444,-76.51738389,0
516244,C27K41,Cl 27 entre Kr 41 y 41A,3.41675722,-76.51761417,0
516245,C27K41C,Cl 27 entre Kr 41C y 41D,3.41527639,-76.51776139,0
516246,K66C13A,Kr 66 entre Cl 13A y 13B,3.39795528,-76.53661889,0
516247,K66C14,Kr 66 entre Cl 14C y 14,3.39771222,-76.53089667,0
516248,K66C15A,Kr 66 entre Cl 15A y 16,3.39746861,-76.52886528,0
516249,K50D66,Kr 50 con Dg 66,3.3987025,-76.51880056,0
516250,C16K68,Cl 16 entre Cr 68 y 66,3.39651306,-76.52782639,0
516251,C16K682,Cl 16 entre Cr 68,3.39591361,-76.52803222,0
516252,C16K692,Cl 16 entre Cr 69 y 70,3.39377,-76.52817306,0
516253,K26C16,Kr 26 entre Cl 16 y 15,3.42874778,-76.52582917,0
516254,K80C13B,Kr 80 entre Cl 13B y 13A,3.38728722,-76.53624861,0
517002,C8K10,Cl 8 entre Kr 10 y 12,3.44625333,-76.53404833,0
517006,K56C82,Kr 56 entre Cl 8 y 9,3.40760972,-76.54341111,0
517007,C9K512,Cl 9 entre Kr 53 y  52A,3.40969333,-76.54198667,0
517008,C9K502,Cl 9 entre Kr 50 y 48,3.41331,-76.54086667,0
517009,C9K462,Cl 9 entre Kr 46 y 44,3.415485,-76.54021333,0
517011,K39C9A1,Kr 39 entre Cl 9A y 9,3.42129306,-76.53751556,0
517012,K39C61,Kr 39 entre Cl 6 y 5F,3.42248528,-76.5425575,0
517013,K39C5B1,Kr 39 entre Cl 5B y 5A,3.42378833,-76.545115,0
517014,K52C31,Kr 52 entre Cl 3 y 2,3.4154775,-76.55280444,0
517015,K52C22,Kr 52 entre Cl 2 y 3,3.41531,-76.55269611,0
517016,C1K521,Cl 1 entre Kr 52 y 53,3.415155,-76.55512333,0
517017,C1K532,Cl 1 entre Kr 53 y 52,3.41501833,-76.55492917,0
517018,C1K55B1,Cl 1 entre Kr 55B y 56,3.41138389,-76.55575472,0
517020,C1K591,Cl 1 entre Kr 59 y 60,3.40755,-76.55581,0
517021,C1K592,Cl 1 entre Kr 60 y 59 2,3.407385,-76.55563167,0
517023,C1K622,Cl 1 entre Kr 62 y 60,3.40536639,-76.55581583,0
517025,C1K641,Cl 1 entre Kr 64 y 64A,3.40060639,-76.55690056,0
517026,C1K64A2,Cl 1 entre Kr 65A y 64A,3.40019972,-76.55677,0
517027,C1K66B1,Cl 1 entre Kr 66B y 67,3.39495,-76.55712056,0
517028,C1K692,Cl 1 entre Kr 69 y 67,3.39466833,-76.55692667,0
517029,K70C1OE1,Kr 70 entre Cl 1Oe y 1AOe,3.39256333,-76.5573,0
517030,C2OEK721,Cl 2Oe entre Kr 72 y 73B,3.39058167,-76.55796861,0
517031,C2AOK74C,Cl 2AOe entre Kr 74C y 74D,3.38911667,-76.55854833,0
517032,C2AOEK75,Cl 2AOe entre Kr 75 y 75A,3.38760667,-76.55878889,0
517033,C1AOEK75,Cl 1AOe entre Kr 75 y 74B,3.38916667,-76.557375,0
517034,C3OD511,Cl 3O entre Dg 51 y 50,3.41684167,-76.55622861,0
517035,D50C61,Dg 50 entre Cl 6 y 7,3.41618833,-76.55800222,0
517037,K52D502,Kr 52 entre Dg 50 y 51,3.41557472,-76.55961917,0
517038,D51C82,Dg 51 entre Cl 8 y 7,3.41541889,-76.55850111,0
517039,D51C52,Dg 51 entre Cl 5 y 4,3.41606222,-76.5567175,0
517041,C2AK62B1,Cl 2A con Kr 62B,3.403475,-76.55203833,0
517042,C2AK64A1,Cl 2A entre Kr 64 y 64A,3.40082167,-76.55233139,0
517043,C2AK65A1,Cl 2A entre Kr 65A y 66,3.39835417,-76.55238472,0
517045,C3K65A,Cl 3 entre Kr 65A y 65,3.39934083,-76.54979861,0
517046,C3K64,Cl 3 entre Kr 64 y 63A,3.40124833,-76.54974,0
517050,C3K602,Cl 3 entre Kr 60 y 58,3.40692056,-76.54969056,0
517052,C2K532,Cl 2 entre Kr 53 y 52,3.41298,-76.55345333,0
517058,C1K501,Cl 1 entre Kr 52 y 50,3.417905,-76.55416333,0
517059,C1K502,Cl 1 entre Kr 50 y Dg 51,3.41780333,-76.554345,0
517060,C1K461,Cl 1 entre Kr 46 y 45,3.42086167,-76.55308167,0
517061,C1K462,Cl 1 entre Kr 44 y 45,3.42123472,-76.55327722,0
517062,C1K441,Cl 1 entre Kr 44 y 42,3.42342,-76.55276833,0
517063,C1K442,Cl 1 entre Kr 39 y 40,3.42454333,-76.55254333,0
517064,C1K42,Cl 1 entre Kr 42 y 40,3.42430556,-76.55256028,0
517065,D37C3A1,Dg 37 entre Cl 3A y 4,3.42731611,-76.54970194,0
517066,D37AC41,Dg 37A entre Cl 4 y 4B,3.42855,-76.54748,0
517067,C4BK36B1,Cl 4B entre Kr 36B y 36,3.43116667,-76.54644167,0
517068,K36C4D1,Kr 36 entre Cl 4D y 5,3.43129833,-76.54409667,0
517072,C5K38A2,Cl 5 entre Kr 38A y 38C,3.426915,-76.54584333,0
517076,C5K701,Cl 5 entre Kr 70 y 73,3.39290028,-76.54596833,0
517083,C1AK73B1,Cl 1AOe entre Kr 73B y 73A,3.390445,-76.55721667,0
517084,C1AOEK72,Cl 1AOe entre Kr 72 y 70,3.3922,-76.55719833,0
517090,C2AK791,Cl 2A entre Kr 79 y 78,3.38726056,-76.55194,0
517091,C1CK782,Cl 1C con Kr 77A y 78,3.38690778,-76.55381139,0
517093,C1CK74A2,Cl 1C entre Kr 74A y 74,3.38988639,-76.55383722,0
517096,K73C2B2,Kr 73 entre Cl 2A y 2C,3.39129167,-76.55109083,0
517097,K73C2C2,Kr 73 entre Cl 2C y 3,3.39149833,-76.5493675,0
517102,C9K65A,Cl 9 entre Kr 65A y 65,3.39916333,-76.54438167,0
517103,C9K63A,Cl 9 entre Kr 63 y 62C,3.40228833,-76.54407667,0
517104,C9K61A,Cl 9 entre Kr 61A y 61,3.40492167,-76.54336333,0
517105,C9K56,Cl 9 entre Kr 56 y 55,3.40796,-76.54245167,0
517106,C9K43,Cl 9 entre Kr 43 y 42,3.41861,-76.53928167,0
517107,C9K39,Cl 9 entre Kr 39 y 38,3.42238833,-76.53818333,0
517108,C9K37,Cl 9 entre Kr 37 y 36,3.42557667,-76.53760333,0
517109,C6K24A,Cl 6 entre Kr 24A y 25,3.43541667,-76.53880167,0
517110,C6K26,Cl 6 entre Kr 26 y 27,3.43370833,-76.53887167,0
517111,C6K29,Cl 6 entre Kr 29 y 30,3.43145667,-76.53895833,0
517113,C6K36,Cl 6 entre Kr 34 y 36,3.42779833,-76.53940167,0
517115,C6K42,Cl 6 entre Kr 42 y 43,3.41957,-76.54298667,0
517117,C6K50,Cl 6 entre Kr 50 y Cl 5,3.41372333,-76.54639167,0
517119,K39C7A,Kr 39 entre Cl 7A y 7,3.42188333,-76.540415,0
517121,K66C10,Kr 66 entre C 9 y 10,3.39797944,-76.54341806,0
517122,K66C12,Kr 66 entre Cl 11 y 12,3.39796528,-76.53942861,0
517123,K66C13B2,Kr 66 entre Cl 13B y 13E,3.39792972,-76.53418139,0
517125,C10K332,Cl 10 entre Kr 33 y 39,3.4231675,-76.53476833,0
517126,K67C1D,Kr 67 entre Cl 1D y 1C,3.39529639,-76.55349333,0
517129,C2AK76A,Cl 2A entre Kr 76A y 76,3.38924056,-76.55136361,0
517131,C5K7068,Cl 5 entre Kr 70 y 68,3.39498833,-76.54575167,0
517132,C1K37A,Cl 1 entre Kra 37A y 37,3.42738306,-76.55109167,0
517133,C10OEK37,Cl 10 Oe entre Kr 37 y 36C,3.43087222,-76.55130472,0
517134,C10OEK25,Cl 10 Oe con Kr 25D,3.43416222,-76.54960722,0
517143,K56C1AOE,Kr 56 entre Cl 1 y 2 Oe,3.41109667,-76.55679222,0
517144,K56C7OE,Kr 56 entre Cl 7 y 8 Oe,3.41218806,-76.55910806,0
517147,C13OEK55,Cl 13OE entre Kr 56 y 55,3.40953778,-76.56481944,0
517150,D52K54D,Dg 25 entre Kr 54D y 53,3.41464528,-76.56157861,0
517151,C1K54,Cl 1 entre Kr 52 y 54,3.41351444,-76.55563472,0
517152,C1K38C,Cl 1 entre Kr 38D y 38C,3.42618361,-76.55160278,0
517154,K57C3,Kr 57 entre Cl 3 y 2A,3.40847306,-76.55077139,0
517155,C2AK58,Cl 2A entre Kr 58 y 60,3.40723556,-76.55162,0
512089,C75A2B,Cl 75 entre Av 2B y 2A,3.493865,-76.50198306,0
512090,A2NC75AN,Av 2N entre Cl 75N y 75AN,3.49305778,-76.50103472,0
512091,A2NC75C,Av 2N entre Cl 75CN y 75DN,3.49447333,-76.49986667,0
512092,A2NC75IN,Av 2N entre Cl 75IN y 75HN,3.49477278,-76.49971167,0
512093,A2CNC75C,Av 2CN entre Cl 75C y 75,3.49598472,-76.50266972,0
512100,C44A2D,Cl 44 entre Av 2D y 2E,3.47686833,-76.51573833,0
512101,A2NA1,Av 2N entre Av 1 y Cl 4,3.4519675,-76.5392125,0
512103,A4NC10,Av 4N entre Cl 10 y 12 Los Turcos,3.45518333,-76.5353625,0
512104,A6NC13,Av 6N entre Cl 13 y 15 Sisben,3.45739,-76.53353667,0
512112,A2FC25,Av 2F Con Cl 25 Terminal de Transportes,3.46499667,-76.52384,0
512117,A6NC67,Av 6N entre Cl 67 y 49,3.48804667,-76.52566667,0
512120,A2CNC74,Av 2CN entre Cl 74 y 75,3.49550583,-76.50358278,0
512121,A2BNC75C,Av 2BN entre Cl 75C y 75,3.49502556,-76.5020075,0
512122,C74A2B2,Cl 74 entre Av 2B2 y 2B1,3.49388333,-76.50372694,0
512123,A6NC528,Av 6N entre Cl 52 y 58,3.490015,-76.52401,0
512124,C62AA2N,Cl 62A entre Av 2N y 2B,3.48625944,-76.50532972,0
512130,C44A5N,Cl 44 entre Av 5N y 4N,3.48103556,-76.52369417,0
512131,C44A4N,Cl 44 entre Av 4N y 3G,3.48010111,-76.52137944,0
512132,C44A2G,Cl 44 entre Av 2G y 2E,3.47686389,-76.51599389,0
512133,A1NC171,Av 1N entre Cl 17 y 15,3.45797278,-76.5304825,0
512135,C52A2HN,Cl 52 entre Av 2HN y 2GN,3.48227667,-76.51104361,0
512144,C55NA2F,Cl 55N entre Av 2F y 2H,3.48423167,-76.51008,0
512147,A6ANC223,Av 6AN entre Cl 22 y 23,3.46414889,-76.53020556,0
512148,A6NC26A,Av 6N entre Cl 26A y 27,3.46842972,-76.52906944,0
512149,A6NC28,Av 6N entre Cl 28 y 29A,3.47009167,-76.52794833,0
512150,A6NC37B,Av 6N entre Cl 37B y38,3.47605639,-76.52652278,0
512151,A6NC44BA,Av 6N entre Cl 44B y 44A,3.48319833,-76.52578778,0
512152,A6ANC21,Av 6AN entre Cl 22 y 21,3.46345139,-76.53115417,0
512153,A2GNC57,Avenida 2GN entre Calle 57 y 57A,3.48592222,-76.50964444,0
512154,A6NC30-2,Av 6N entre Cl 30 y 34,3.47167833,-76.52696333,0
512155,A9NC56,Av 9N Con Cl 56,3.48892389,-76.53206,0
512156,C53ANA7A,Cl 53AN con Av 7A Bis,3.48751778,-76.53019667,0
512157,A7NC53N,Av 7N con Cl 53N,3.487265,-76.52914028,0
512158,A8NC50,Av 8N entre Cl 50 y 49N,3.485445,-76.52933917,0
512159,C47C46N,Cl 47 entre Cl 46N y Av 7N,3.48425861,-76.52824417,0
512160,C47NA6,Cl 47N entre Av 6 y 5CN,3.48431222,-76.52531306,0
512161,C47NA5,Cl 47N entre Av 5 y 4BN,3.48359528,-76.52268722,0
512162,A4NC47,Av 4N entre Cl 47 y 45N,3.48247528,-76.52153722,0
512163,C44NA3G,Cl 44N entre Av 3G y 3EN,3.47969167,-76.52018806,0
512164,C44NA3BN,Cl 44N entre Av 3B y 3N,3.47854583,-76.51822833,0
512165,C38NA3,Cl 38N entre Av 3 y 3CN,3.47466694,-76.52011722,0
512166,C38NA3G,Cl 38N entre Av 3G y 3HN,3.47598167,-76.52256806,0
512167,A4NC40,Av 4N entre Cl 40 y 42N,3.47859639,-76.52254278,0
512168,A4NC45N,Av 4N con Cl 45N,3.48172639,-76.52143583,0
512169,C47NA4,Cl 47N entre Av 4 y 4AN,3.48326667,-76.52168083,0
512170,C47NA5A,Cl 47N entre Av 5A y 5BN,3.48420111,-76.52425528,0
512171,C47NA6AN,Cl 47N entre Av 6 y 6AN,3.48437222,-76.52645889,0
512172,C47NA7N,Cl 47N Con Av 7N,3.48437583,-76.52808222,0
512173,A8NC50N,Av 8N entre Cl 50 y 51N,3.486085,-76.52959167,0
512174,A7NC53AN,Av 7N con Cl 53AN,3.48735667,-76.52907806,0
512175,C53ANA7B,Cl 53AN con AV 7ABis,3.48765306,-76.5304775,0
512176,A9NC56N,Av 9N Con Cl 56N,3.48912722,-76.53213444,0
512178,C21A5AN,Cl 21 entre Av 5AN y 5N,3.46228167,-76.52937667,0
512181,A2NC62AN,Av 2N entre Cl 62AN y 62N,3.48522833,-76.50480056,0
512182,C55A2B,Cl 55 entre Av 2B y 2E,3.48321444,-76.50845778,0
512183,A2NC24,Av 2N entre Cl 24 y 23A,3.46240833,-76.52438667,0
512184,A2GNC58,Avenida 2GN entre Calle 58 y 59 Unid Rec,3.48668472,-76.50883889,0
512185,C61A2GN,Calle 61 entre Avenida 2GN y 2BN Unid Re,3.48745167,-76.5093225,0
512186,A3NC61A,Avenida 3N entre Calle 61A y 70,3.4890125,-76.51040083,0
513001,K1C62,Kr 1 entre Cl 62 y 62A,3.48145,-76.49804833,0
513003,A1NC71,Av 1N entre Cl 7 y 6,3.45182667,-76.53710333,0
513004,K1C70AB,Kr 1 entre Cl 70A y 70A Bis,3.48934556,-76.49326722,0
513005,K1C71A,Kr 1 entre Cl 71 y 71A,3.49082333,-76.49137778,0
513006,C73K1A3,Cl 73 entre Kr 1A3 y 1A4,3.48916528,-76.48772306,0
513007,C73K1A4,Cl 73 entre Kr 1A45 y 1A5,3.48693194,-76.48695139,0
513008,C73K1A8,Cl 73 entre Kr 1A7 y 1A8,3.48362222,-76.48609917,0
513009,C73K1A13,Cl 73 entre Kr 1A12 y 1A13,3.48121556,-76.48548083,0
513013,C70K1C1,Cl 70 entre Kr 1C1 y 1C,3.47767833,-76.487825,0
513014,C70K1C2,Cl 70 entre Kr 1C1 y 1D,3.47690778,-76.48846278,0
513015,A6NC381,Av 6N entre Cl 38 y 36,3.47670833,-76.52664333,0
513016,A6NC372,Av 6N entre Cl 37A y 37BN,3.47591833,-76.526525,0
513017,K1DC70,Kr 1D entre Cl 70 y 67,3.47590278,-76.489695,0
513018,K1DC63,Kr 1D entre Cl 63 y 62,3.47503806,-76.49239917,0
513019,K1DC61A,Kr 1D entre Cl 62 y 59,3.47433833,-76.49490333,0
513020,K1DC58,Kr 1D entre Cl 58 y 59,3.47370333,-76.49689833,0
513024,K4NC72B,Kr 4N entre Cl 72 y 72Bis,3.49142389,-76.49666389,0
513025,K4NC72H,Kr 4N entre Cl 72G y 72H,3.494215,-76.49484333,0
513026,K4NC77,Kr 4N entre Cl 76 y 77,3.49663333,-76.493495,0
513027,K4NC83,Kr 4N entre Cl 82 y 83,3.49815722,-76.49262333,0
513029,C84K2BN,Cl 84 entre Kr 2AN y 2NBis,3.49650972,-76.48748,0
513030,C84K1GN,Cl 84 entre Kr 1GN y 1HN,3.49466056,-76.48544194,0
513031,K1FNC80,Kr 1FN entre Cl 81 y 80,3.49389472,-76.487675,0
513032,K5NC68,Kr 5N entre Cl 68 y 69,3.48623056,-76.50090667,0
513033,K4ANC70,Kr 4AN entre Cl 70 y 71,3.48759194,-76.49866889,0
513034,K4NC71G,Kr 4N entre Cl 71F y 71H,3.49005833,-76.49756083,0
513035,C70K1I,Cl 70 entre Kr 1I y 2,3.47313333,-76.487295,0
513037,C52K1D,Cl 52 entre Kr 1D y 1C4,3.47230611,-76.50297139,0
513038,C52K1B1,Cl 52 entre Kr 1B1 y 1B,3.4745275,-76.50363611,0
513039,K1C621,Kr 1 entre Cl 66 y 62,3.48173194,-76.49820972,0
513040,C62K5N1,Cl 62 entre Kr 4AN y 5N,3.482945,-76.50136611,0
513041,K4NC841,Kr 4N entre Cl 84 y 83,3.49886333,-76.49230333,0
513042,K4NC771,Kr 4N entre Cl 78 y 77,3.49694833,-76.49339833,0
513043,K4NC72K1,Kr 4N entre Cl 72K  y 72J,3.49521667,-76.49434,0
513044,K4NC72B1,Kr 4N entre Cl 72D y 72C,3.49342639,-76.49537972,0
513045,K4NC721,Kr 4N entre Cl 72A y 72,3.49109167,-76.49697833,0
513046,K4NC71D1,Kr 4N entre Cl 71E y 71D,3.48947167,-76.49807833,0
513047,K4NC70,Kr 4N entre Cl 71 y 70,3.48769056,-76.4993125,0
513048,C70K3BN,Cl 70 entre Kr 3BN y 3CN,3.48694833,-76.49735333,0
513049,C70K4N2,Cl 70 entre Kr 4N y 1,3.48626,-76.49718667,0
513050,K1C661,Kr 1 entre Cl 70 y 66,3.48487333,-76.49619333,0
513051,C71IK3C2,Cl 71I entre Kr 3C y 3B,3.48970167,-76.49588,0
513052,K3NC71I1,Kr 3N entre Cl 71I y 72,3.48961833,-76.493785,0
513053,K3NC72E2,Kr 3N entre Cl 72C y 72D,3.491805,-76.492265,0
513054,K3NC732,Kr 3N entre Cl 74 y 75,3.49455833,-76.49089333,0
513055,K3NC842,Kr 3N entre Cl 83A y 84,3.49700167,-76.4896,0
513057,C62K4A2,Cl 62 entre Kr 4A y 4,3.48221167,-76.50041333,0
513058,K1C66N2,Kr 1 entre Cl 62A y 66,3.48375,-76.49632,0
513059,C66K1A,Cl 66 entre Kr 1A y 1A6,3.48194389,-76.49411028,0
513062,C70K1A12,Cl 70 entre Kr 1A12 y 1A11,3.48113667,-76.48889833,0
513063,C70K1A10,Cl 70 entre Kr 1A10 y 1A11,3.481135,-76.48979,0
513065,C71K1A51,Cl 71 entre Kr 1A5-1 y 1A4,3.48602333,-76.48925806,0
513066,C71K1A3,Cl 71 entres Kr 1A4 y 1A3,3.48784944,-76.49028278,0
513068,C71K1A1A,Cl 71 entre Kr 1A1A y 1A1,3.489365,-76.49106667,0
513069,K1C73,Kr 1 entre Cl 73 y 73B,3.49163417,-76.48813806,0
513070,K1C74B,Kr 1 entre Cl 74B y 73B,3.49210944,-76.48683444,0
513071,K1C73B,Kr 1 entre Cl 73B y 73,3.49177194,-76.48917778,0
513074,K1C71Y72,Kr 1 entre Cl 71 y 72,3.49091,-76.491195,0
513075,K1C72,Kr 1 entre Cl 72 y 71,3.49102306,-76.49154667,0
513076,K1C711,Kr 1 entre Cl 71 y 70A,3.48924611,-76.49364167,0
513077,K3C58,Kr 3 entre Cl 58 y 59,3.46729667,-76.49537667,0
513078,K3C59D,Kr 3 entre Cl 59D y 60,3.46804667,-76.49298833,0
513079,K3C63,Kr 3 entre Cl 63 y 63B,3.46884833,-76.49048333,0
513080,K3C65B,Kr 3 entre Cl 65B y 69,3.46961833,-76.48802,0
513081,C70K31,Cl 70 entre Kr 3 y 4C,3.46914833,-76.48600667,0
513082,K5C70,Kr 5 entre Cl 70 y69,3.46712667,-76.48641667,0
513083,K5C65A,Kr 5 entre Cl 65A y 64B,3.46653667,-76.48843333,0
513084,K5C62B,Kr 5 entre Cl 62B y 62,3.46599333,-76.49019167,0
513085,C62K4C,Cl 62 entre Kr 4C y 4B,3.46750667,-76.491125,0
513088,K1C55Y56,Kr 1 entre Cl 55 y 56,3.47826222,-76.50194417,0
513089,C56K1B,Cl 56 entre Kr 1B y 1C,3.47561306,-76.50047667,0
513092,K2C53,Kr 2 entre Cl 53 y 52B,3.46866167,-76.500565,0
513093,C52K2B2,Cl 52 entre Kr 2B2 y 2E,3.46607667,-76.50157333,0
513094,K3C52,Kr 3 entre Cl 52 y 53,3.4658475,-76.49974806,0
513095,K3C56,Kr 3 entre Cl 56 y 57,3.46666,-76.49755333,0
513096,K3C60,Kr 3 entre Cl 60 y 59D,3.468245,-76.49312167,0
513097,K3C59,Kr 3 entre Cl 59 y 58,3.46748667,-76.49558333,0
513098,K3C57,Kr 3 entre Cl 57 y 58,3.46681333,-76.49764667,0
513099,K3C54,Kr 3 entre Cl 54 y 53,3.46623667,-76.49932,0
513100,C52K3,Cl 52 entre Kr 3 y 2,3.46604833,-76.50126167,0
513101,C52K2,Cl 52 entre Kr 3 y 2,3.46738861,-76.50164583,0
513102,C52K1E,Cl 52 entre Kr 1E y 1D2,3.47000667,-76.50234,0
513103,C70K7,Cl 70 entre Kr 7 y 5,3.46723167,-76.48452167,0
513104,C70K5,Cl 70 entre Kr 5 y 7,3.46683833,-76.48526833,0
513105,C70K4,Cl 70 entre Kr 4 y 3D,3.46931833,-76.485185,0
513106,C70K3,Cl 70 entre Kr 3 y 4C,3.46907833,-76.485985,0
513107,C70K2-1,Cl 70 entre Kr 2 y 1J,3.47335667,-76.48645167,0
513110,C70K1A14,Cl 70 entre Kr 1A14 y 1B,3.47897833,-76.48910167,0
513111,C70K1A51,Cl 70 entre Kr 1A6 y A5,3.48438167,-76.49050167,0
513112,C70K1A6,Cl 70 entre Kr 1 y 1A6,3.48390667,-76.49101333,0
513113,C70K1,Cl 70 con Kr 1,3.48625,-76.49496,0
513114,C70K11,Cl 70 con Kr 1 1,3.48577889,-76.49535,0
513118,K5C28,Kr 5 entre Cl 28 y 29,3.457585,-76.517575,0
513119,K5C32,Kr 5 entre Cl 32 y 33,3.458485,-76.514305,0
513120,K5C35,Kr 5 entre Cl 35 y 34,3.45899,-76.51305667,0
513121,K5C34,Kr 5 entre Cl 34 y 35,3.45896,-76.51286167,0
513122,K5C38,Kr 5 entre Cl 38 y 36A,3.459725,-76.510865,0
513123,K5C37,Kr 5 entre Cl 37 y 38,3.45968,-76.51056,0
513124,K5C44,Kr 5 entre Cl 44 y 43,3.46075333,-76.50768,0
513127,K5C46,Kr 5 entre Cl 46 y 47,3.46183333,-76.50351778,0
513128,C52K5,Cl 52 entre Kr 5 y 4C,3.4632825,-76.50062722,0
513129,K2C52,Kr 2 entre Cl 52 y 56,3.46848,-76.500605,0
513130,K2C571,Kr 2 entre Cl 57 y 56,3.46936333,-76.49829167,0
513131,K2C572,Kr 2 entre Cl 57 y 58,3.46934667,-76.49764833,0
513132,K2C60,Kr 2 entre Cl 60 y 59B,3.47035333,-76.49521167,0
513133,K2C592,Kr 2 entre Cl 59A y 60,3.47009,-76.495345,0
513134,K2C621,Kr 2 entre Cl 62 y 60,3.47096,-76.49318167,0
513135,K2C61A2,Kr 2 entre Cl 61A y 62,3.47086333,-76.49293667,0
513136,K2C641,Kr 2 entre Cl 64 y 62,3.47155,-76.491085,0
513137,K2C64,Kr 2 entre Cl 62 y 65,3.47160167,-76.49057833,0
513138,K2C671,Kr 2 entre Cl 67 y 66,3.472095,-76.48938667,0
513139,K2C65,Kr 2 entre Cl 65 y 67,3.472125,-76.48882167,0
513140,C70K2-2,Cl 70 entre Kr 2 y 2A,3.47225139,-76.48701694,0
513141,C73K7,Cl 73 entre Kr 7 y 2F,3.46896917,-76.48021444,0
513142,C73K4,Cl 73 entre Kr 4 y 3,3.47123694,-76.48120722,0
513143,C73K1I,Cl 73 entre Kr 1I y 1J,3.47443167,-76.48277,0
513144,C73K1G,Cl 73 entre Kr 1G y 1F,3.47656167,-76.483425,0
513147,C52K3Y4B,Cl 52 entre Kr 3 y 4B,3.46471,-76.50127444,0
513148,K5C52,Kr 5 entre Cl 52 y 47,3.46244667,-76.50204,0
513149,C34K6A,Cl 34 entre Kr 6A y 7,3.45719667,-76.51288,0
513150,C73K1D,Cl 73 entre Kr 1D y 1C1,3.478395,-76.484055,0
513151,C73K1A14,Cl 73 entre Kr 1A14 y 1A13,3.48137667,-76.48498833,0
513152,C73K1A82,Cl 73 entre Kr 1A8 y 1A7,3.48392333,-76.48584667,0
513153,C73K1A4E,Cl 73 entre Kr 1A4E y 1A4D,3.48723833,-76.486865,0
513157,K1C70A1,Kr 1 entre Cl 70A y 71,3.48974917,-76.49277361,0
513158,C73K1B21,Cl 73 entre Kr 1B2 y 1B3,3.47946,-76.48484,0
513159,C73K1E,Cl 73 entre Kr 1E y 1F,3.47671833,-76.48401,0
513160,C73K2A,Cl 73 entre Kr 2A y 2B,3.47345333,-76.48295167,0
513161,C73AK3,Cl 73A entre Kr 3 y 4,3.47154833,-76.48195667,0
513162,C73AK5,Cl 73A con Kr 5,3.46884833,-76.48056667,0
513163,C73K1A2C,Cl 73 entre Kr 1A2C y 1A2B,3.48950667,-76.48757833,0
513164,C62K1BIS,Cl 62 entre Kr 1Bis y 1A,3.47985806,-76.49731583,0
513166,C62AK1B4,Cl 62A entre Kr 1B4 y 1B5,3.47649111,-76.49343806,0
513167,C62AK1A8,Cl 62A entre Kr 1A8 y 1A7,3.47911139,-76.49284972,0
513168,C66K1A15,Cl 66 con Kr 1A15,3.47944861,-76.49141944,0
513172,K5NC67N,Kr 5N entre Cl 67 y 65,3.48527861,-76.50133861,0
513182,K1C47Y50,Kr 1 entre Cl 47N y 50N,3.47363528,-76.5065525,0
513183,C62K1B,Cl 62 entre Kr 1B y 1C,3.47728722,-76.49462417,0
513185,K1C56,Kr 1 entre Cl 56 y 57 Comfandi IPS,3.47882167,-76.5011275,0
513186,C56K1C,Cl 56 entre Kr 1D y 1C,3.47347722,-76.49962833,0
513187,C56K1C1,Cl 56 entre Kr 1C y 1B,3.47565806,-76.5002175,0
513188,K5C55,Kr 5 entre Cl55 y 54,3.46355389,-76.49814806,0
513189,K5C59,Kr 5 entre Cl 59 y 58,3.46448861,-76.49504833,0
513190,K5C62,Kr 5 entre Cl 62 y 60,3.46526167,-76.49244833,0
513191,C52K7N,Cl 52 entre Kr 7N y 9N,3.47956889,-76.50741444,0
513192,C52K1-1D,Cl 52 entre Kr 1 y 1D,3.47448528,-76.50382528,0
513193,C52K1D3,Cl 52 entre Kr 1 y 1D Centro Comercial C,3.47183472,-76.50306417,0
513194,C52K1D2,Cl 52 entre Kr 1D1 y 1D2,3.4698075,-76.50259556,0
513195,K2C49,Kr 2 entre Cl 49 y 47,3.46759222,-76.50391139,0
513196,C47K1D,Cl 47 entre Kr 1D Bis y 1D,3.47072028,-76.5050225,0
513197,K1DC56-1,Kr 1D entre Cl 56 y 58,3.47276417,-76.49888389,0
513198,K1DC59,Kr 1D entre Cl 59 y 59B,3.47338167,-76.49680639,0
513199,K1DC60A,Kr 1D entre Cl 60A y 60A1,3.47396389,-76.49495583,0
513200,C62K1D,Cl 62 entre Kr 1D y 1D Bis,3.47391389,-76.49329639,0
513201,C62K1G,Cl 62 entre Kr 1G y 1G1,3.47258056,-76.4928925,0
513202,C62K2B1,Cl 62 entre Kr 2 y 2B1,3.46958056,-76.49201472,0
513203,C70K1CAI,Cl 70 entre Kr 1 y 1A5 CAI,3.48511833,-76.49380667,0
513211,K5NC63,Kr 5N entre Cl 63N y 65N,3.48431472,-76.50153583,0
513212,C62K1C,Cl 62 entre Kr 1D y 1C,3.47566583,-76.49358,0
513214,C62K1A5A,Cl 62 entre Kr 1A5A y 1 Bis,3.47962694,-76.49679361,0
513215,K2C70,Kr 2 entre Cl 70 y 69,3.47255917,-76.48753722,0
513216,C44K6N,Cl 44 entre Kr 6N y 5N,3.47253,-76.51226167,0
513218,C44K1D,Cl 44 entre Kr 1D1 y 1D,3.46901639,-76.50930111,0
513219,C44K1D1,Cl 44 entre Kr 1D1 y 1H,3.46815722,-76.50924333,0
513220,C44K2,Cl 44 entre Kr 2 y 2B,3.4650375,-76.50844528,0
513222,C44K6A,Cl 44 entre Kr 7 y 6A,3.45941639,-76.50685333,0
513224,C44K1E,Cl 44 entre Kr 2 y 1E,3.46609028,-76.50850472,0
513231,C70K1B,Cl 70 entre Kr 1B y 1B1,3.47911972,-76.48915167,0
513232,C44K4B1,Cl 44 entre Kr 4B y 4,3.46220167,-76.50751417,0
513233,C44K6B1,Cl 44 entre Kr 6B y 6C,3.45923556,-76.50701,0
513234,C44K4A1,Cl 44 entre Kr 4 y 4A,3.462245,-76.50772306,0
513235,C44K2N,Cl 44 entre Kr 2N y 3AN,3.47096472,-76.51066278,0
513236,C44K7N,Cl 44 entre Kr 6N y 7N,3.47306472,-76.51247722,0
513237,C73AK1A,Cl 73A entre Kr 1A y 1A1,3.49121444,-76.48607528,0
513238,C76K1A4A,Cl 76 entre Kr 1A4A Y 1A4A BIS,3.48880194,-76.48512917,0
513239,C76K1A5A,Cl 76 entre Kr 1A5A BIS y 1A5B,3.48661028,-76.48451194,0
513240,C76K1A7,Cl 76 entre Kr 1A7 y 1A7 BIS,3.48445472,-76.48368694,0
513241,K1A12C76,Kr 1A12 entre Cl 76 y 73A,3.48270861,-76.483635,0
513242,C73AK1A8,Cl 73A entre Kr 1A8 y 1A7 BIS,3.48388972,-76.48453861,0
513243,C73AK1A5,Cl 73A entre Kr 1A5D y 1A5C BIS,3.48612583,-76.48509,0
513244,C73AK1A4,Cl 73A entre Kr 1A4B1 y 1A4B,3.48826833,-76.48561333,0
513245,C73AK1A1,Cl 73A entre Kr 1A1 y 1A,3.49123417,-76.48597472,0
513247,C52A2AN8,Cl 52 entre Av 2AN y Kr 8N,3.48000639,-76.50813083,0
513248,C52K5N,Cl 52 entre Kr 5N y 4N,3.47785639,-76.50593361,0
513251,C70K4CN,Cl 70 entre Kr 4CN y 5N,3.48777833,-76.50024833,0
513252,C70K6N,Cl 70 entre Kr 6N y 5N,3.48723333,-76.50119,0
513253,C70A2N1,Cl 70 entre Av 2N y 2Bis,3.48986333,-76.506795,0
513254,C70A2BS1,Cl 70 entre Av 2Bis y 2N,3.48924167,-76.50617667,0
515059,C72UK28E,Cl 72U entre Kr 28E6 y 28E5,3.41912306,-76.49389278,0
515060,C72UK28D,Cl 72U entre Kr 28D5 y D4,3.42070389,-76.49229528,0
515061,C83K28D,Cl 83 entre Kr 28D y 28D2,3.41719806,-76.48680833,0
515062,K29C73,Kr 29 con Cl 73,3.41473417,-76.49326361,0
515063,C48K32B,Cl 48 entre Kr 32A y 32B,3.414465,-76.49710333,0
515064,K46C43,Kr 46 entre Cl 44 y 43,3.40482806,-76.51354472,0
515066,K46C40,Kr 46 entre Cl 40 y 41,3.40714722,-76.51600667,0
515069,K39C421,Kr 39 entre Cl 42 y 43,3.41532861,-76.50439778,0
515070,K42BC54C,Kr 42B entre Cl 54 y 54C,3.40082333,-76.50409583,0
515071,K42BC55,Kr 42B entre Cl 55C y 56,3.39946444,-76.50286056,0
515072,K42AC56C,Kr 42A entre Cl 56C y 57,3.39831528,-76.50182583,0
515077,K42BC53,Kr 42B entre Cl 53 y 51,3.40218222,-76.50516556,0
515078,K42BC50,Kr 42B entre Cl 50 y 48,3.40415972,-76.50697583,0
515079,K42BC46,Kr 42B entre Cl 46 y 45,3.4066675,-76.50935806,0
515080,K42BC44,Kr 42B entre Cl 44 y 43,3.40780778,-76.51043583,0
515081,K42BC41,Kr 42B entre Cl 41 y 40,3.41022167,-76.51271222,0
515082,K42BC38,Kr 42B entre Cl 38 y37,3.41188361,-76.51428028,0
515083,K42BC37,Kr 42B entre Cl 37 y 38A,3.41188222,-76.51449806,0
515084,K42BC40,Kr 42B entre Cl 40 y 41,3.41023139,-76.51292639,0
515085,K42BC43,K42B entre Cl 43 y 44,3.40788861,-76.51069361,0
515086,K42BC461,Kr 42B entre C46 y 47,3.40591917,-76.50882528,0
515087,K42BC48,Kr 42B entre Cl 48 y 50,3.40423139,-76.50726,0
515088,K42BC51,Kr 42B entre Cl 51 y 53,3.40229083,-76.50548333,0
515105,C40K41A,Cl 40 entre Kr 41A y 41,3.41427167,-76.5088575,0
515106,C40K39C,Cl 40 entre K39C y 39B,3.41615083,-76.50687306,0
515107,C40K39A,Cl 40 entre Kr 39A y 39B,3.41655444,-76.50660361,0
515108,C40K40A,Cl 40 entre Kr 40A y 41,3.41471139,-76.50851139,0
515112,C70K28ED,Cl 70 entre Kr 28E y 28D5,3.42652972,-76.50025222,0
515126,C72UK28A,Cl 72U entre Kr 28A y 28,3.42310083,-76.48978167,0
515127,K28C72U,Kr 28 entre Cl 72U y 72W,3.42405056,-76.48890083,0
515128,C72WK28,Cl 72W entre Kr 28-4 y 28A,3.42249833,-76.48962306,0
515129,C54K39E,Cl 54 entre Kr 39E y 39G,3.40660139,-76.49861667,0
515130,K41BC50,Kr 41B entre Cl 51 y 50,3.40649028,-76.50249222,0
515131,K41BC49,Kr 41B entre Cl 49 y 48,3.40770583,-76.50360528,0
515132,C48K38E,Cl 48 entre Kr 38E y 38C,3.41035222,-76.50150194,0
515133,K41C55,Kr 41B entre Cl 55 y 55A,3.40371528,-76.50016861,0
515134,C57K41E1,Cl 57C entre Kr 41E1 y 41E2,3.40089444,-76.50025389,0
515135,C57K47AB,Cl 57C entre Kr 47A Bis y 47A1,3.39846778,-76.50148778,0
515136,K42C56,Kr 42B entre Cl 56 y 55C,3.39962722,-76.50271278,0
515137,K42C55,Kr 42B entre Cl 55 y 54C,3.40086028,-76.50380444,0
515138,C54K46D,Cl 54 entre Kr 46D y 47,3.39754167,-76.50912167,0
515139,C48K50,Cl 48 entre Kr 49G y 49F,3.39788667,-76.51499167,0
515140,C48K49,Cl 48 entre Kr 49A y 49,3.39910556,-76.51376,0
515141,K46C46,Kr 46 entre Cl 46 y 47,3.40253667,-76.51166472,0
515142,C36K46B,Cl 36 entre Kr 46B y 46C,3.408865,-76.51947,0
515143,C36K47B,Cl 36 entre Kr 47B y 48,3.40756667,-76.520725,0
515144,C36K50,Cl 36 entre Kr 50 y 48,3.40669167,-76.52101833,0
515145,C36K47,Cl 36 entre Kr 47 y 46B,3.40837778,-76.51928528,0
515146,K46C44,Kr 46 entre Cl 44 y 45,3.40431417,-76.51333361,0
515147,C36K42,Cl 36 entre Kr 42 y 41G,3.4136675,-76.51367778,0
515148,C36K41E,Cl 36 entre Kr 41E y 41B,3.4155525,-76.5117175,0
515149,C36K39E,Cl 36 entre Kr 39E y 39C,3.41783667,-76.50934667,0
515150,K39C42B,Kr 39 entre Cl 42B y 42,3.41543139,-76.50421583,0
515151,K39C40,Kr 39 entre Cl 40 y 41,3.41676028,-76.505775,0
515152,K39C38,Kr 39 entre Cl 38 y 37,3.41871083,-76.50732778,0
515153,K46C42,Kr 46 entre Cl 42 y 41,3.40626,-76.51490778,0
515154,C96K28J,Cl 96 con Kr 28J,3.41081139,-76.48940194,0
515155,C96K28E6,Cl 96 con Kr 28E6,3.41204778,-76.48731528,0
515156,K28E3HDC,Kr 28E3,3.41110194,-76.48604972,0
515157,C96K28E,Cl 96 entre 28E y 28D4,3.41321111,-76.48472139,0
515158,K28DC91,Kr 28D entre Cl 91 y 90,3.41598028,-76.48439694,0
515159,K41BC51,Kr 41B entre Cl 51 y 52,3.40588694,-76.50218389,0
515162,K46C57,Kr 46 entre Cl 57 y 56F1,3.39444861,-76.50403556,0
515163,K46C56E,Kr 46 entre Cl 56E y 56D,3.39569833,-76.50515722,0
515164,C56CK44,Cl 56C entre Kr 44 y 43A,3.39713889,-76.50404833,0
515165,K28DC72Y,Kr 28D entre Cl 72W y 72Y,3.4205775,-76.4898325,0
515166,C96K28E3,Cl 96 con Kr 28E3,3.41253028,-76.48633861,0
515167,C56CK42C,Cl 56C entre Kr 42C2 y 43A,3.39747083,-76.50379306,0
515168,C56CK45A,Cl 56C entre Cl 45A y 46,3.39613472,-76.50526083,0
515169,K46C56G,Kr 46 entre Cl 56G y 57,3.39428333,-76.50400556,0
515170,C57K46D,Cl 57 entre Kr 46E y 46D,3.39215944,-76.50480444,0
515171,C46K45,Cl 46 entre Kr 45 y 44A,3.40360444,-76.51150917,0
515184,C57K47D,Cl 57 con Kr 47D,3.39112722,-76.50613972,0
515185,C57K46E1,Cl 57 entre Kr 46E y 46D,3.39212222,-76.50495944,0
515186,C57K48B,Cl 57 con Kr 48B,3.39078694,-76.50673389,0
515187,C48K43B,Cl 48 entre Kr 43B y 43ABis,3.40311028,-76.50935167,0
515188,C48K42A1,Cl 48 entre Kr 42A1 y 42ABis,3.40519333,-76.50711972,0
515189,C48K43E3,Cl 48 entre Kr 43E3 y 41E2,3.40641167,-76.50577167,0
515190,C72WK28C,Cl 72W entre Kr 28C y 28D,3.42141333,-76.49038333,0
515191,C72WK28E,Cl 72W entre Kr 28E y 28E2,3.41918028,-76.49199861,0
515192,C72K28E7,Cl 72W entre Kr 28E7 y 28E8,3.41753028,-76.49313667,0
515193,K28C72V,Kr 28g entre Cl 72V y 72U,3.41772056,-76.49428111,0
515194,C72UK28C,Cl 72U entre Kr 28C y 28B,3.422295,-76.49067278,0
515195,C70K28E2,C70 entre Kr 28E y 28D3 PP2,3.42647722,-76.50030417,0
515196,C54K412,Cl 54 entre Kr 41B y 41D,3.40451611,-76.50155639,0
516004,K44C132,Kr 44 entre Cl 13 y 13A,3.41410778,-76.53225917,0
516005,K44C142,Kr 44 entre Cl 14 y 14B,3.41288889,-76.52820056,0
516006,K44C152,Kr 44 entre Cl 15 y 15Bis,3.41214722,-76.52583333,0
516007,K44C182,Kr 44 entre Cl 18 y 23,3.41160917,-76.52311,0
516008,C25K42C2,Cl 25 entre Kr 42C y 42B,3.41305278,-76.52133806,0
516009,C25K41A2,Cl 25 entre Kr 41A y 41,3.41656056,-76.52119722,0
516010,K39C32A2,Kr 39 entre Cl 33 y 34,3.41956139,-76.51087583,0
516011,K39C171,Kr 39 entre Cl 17 y 16,3.41873,-76.524625,0
516015,C25K42,Cl 25 entre Kr 42 y 41D,3.41458028,-76.52124972,0
516017,D23C18,Dg 23 entre Cl 18 y 17,3.43510167,-76.52327833,0
516018,D23C18E,Dg 23 entre Cl 18E y 18F,3.43453167,-76.52332333,0
516019,C5K77,Cl 5 entre Kr 77 y 76,3.389775,-76.54489,0
516020,C10K73,Cl 10 entre Kr 73 y 72,3.392385,-76.54430667,0
516022,C10K70,Cl 10 entre Kr 70 y 68,3.39531833,-76.54335,0
516024,C10K66A,Cl 10 entre Kr 66A y 66,3.39760222,-76.54259389,0
516025,C10K63,Cl 10 entre Kr 63 y 63A,3.40133833,-76.54182167,0
516026,C10K64A,Cl 10 entre Kr 64A y 61,3.40134667,-76.5414,0
516027,C10K61,Cl 10 entre Kr 61 y 61A,3.40532917,-76.54057778,0
516028,C10K57,Cl 10 entre Kr 57 y 56,3.40589,-76.53992167,0
516030,C10K53,Cl 10 entre Kr 53 y 50,3.40867167,-76.53903,0
516031,C10K49,Cl 10 entre Kr 49 y 50,3.41188833,-76.53846833,0
516032,C10K48B,Cl 10 entre Kr 48B y 48A,3.41208,-76.53790167,0
516033,C10K44A,Cl 10 entre Kr 44A y 46,3.41485833,-76.53752167,0
516034,C10K44,Cl 10 con Kr 44,3.41562389,-76.536775,0
516035,C10K42,Cl 10 entre Kr 42 y 44,3.417775,-76.53649833,0
516036,C10K42A,Cl 10 entre Kr 42 y 41A,3.41785806,-76.53604889,0
516037,C10K39,Cl 10 entre Kr 39 Y 41,3.420275,-76.53568667,0
516038,C10K38A,Cl 10 entre Kr 38A y 38,3.42148667,-76.53484333,0
516040,C10K35,Cl 10 entre Kr 35 y 34,3.42430333,-76.53393,0
516041,D23C131,Dg 23 entre Cl 13 y 12A,3.43167833,-76.528265,0
516044,D23C13,Dg 23 entre Cl 13 y 14,3.43220167,-76.52670667,0
516045,D23C14A,Dg 23 entre Cl 14A y 13B,3.43292806,-76.52647722,0
516047,K23C19B1,Kr 23 entre Cl 19B y 19A,3.435655,-76.521295,0
516048,K23C19A,Kr 23 entre Cl 19A y 19B,3.43512667,-76.52128222,0
516049,C13K801,Cl 13 con Kr 801,3.38679444,-76.53879833,0
516050,C13K802,Cl 13 con Kr 802,3.38684917,-76.53851472,0
516051,C13K75,Cl 13 entre Kr 75 y 76,3.38976167,-76.53868333,0
516052,C13K78,Cl 13 entre Kr 80 y 75,3.38928667,-76.53849,0
